[
    {
        "Name": "Monarca Pasta & Grill",
        "Address": "2703 S Vermont Ave, Los Angeles, CA 90007",
        "Latitude": 34.0302958095,
        "Longitude": -118.2920846939,
        "Cuisine": "Italian",
        "Price Range": "$",
        "Rating": 4.6,
        "Review Count": 181
    },
    {
        "Name": "Bravo Pizza",
        "Address": "5142 Hollywood Blvd, Los Angeles, CA 90027",
        "Latitude": 34.10151,
        "Longitude": -118.30195,
        "Cuisine": "Italian",
        "Price Range": "$",
        "Rating": 4.1,
        "Review Count": 156
    },
    {
        "Name": "Prime Pizza",
        "Address": "446 N Fairfax Ave, Los Angeles, CA 90036",
        "Latitude": 34.079509,
        "Longitude": -118.361269,
        "Cuisine": "Italian, Pizza, Chicken Wings",
        "Price Range": "$",
        "Rating": 4.0,
        "Review Count": 714
    },
    {
        "Name": "Tumby's Pizza",
        "Address": "3567 S Western Ave, Los Angeles, CA 90018",
        "Latitude": 34.0232,
        "Longitude": -118.30923,
        "Cuisine": "Italian, Pizza",
        "Price Range": "$",
        "Rating": 3.7,
        "Review Count": 130
    },
    {
        "Name": "Cheech's Pizza",
        "Address": "2116 Hillhurst Ave, Los Angeles, CA 90027",
        "Latitude": 34.1105581603,
        "Longitude": -118.287129,
        "Cuisine": "Italian, Pizza, Sandwiches",
        "Price Range": "$",
        "Rating": 4.0,
        "Review Count": 434
    },
    {
        "Name": "Prime Pizza",
        "Address": "141 S Central Ave, Los Angeles, CA 90012",
        "Latitude": 34.04825,
        "Longitude": -118.239584,
        "Cuisine": "Italian, Pizza, Chicken Wings",
        "Price Range": "$",
        "Rating": 3.9,
        "Review Count": 486
    },
    {
        "Name": "Ciccero's Pizza",
        "Address": "1536 S La Cienega Blvd, Los Angeles, CA 90035",
        "Latitude": 34.0494746565,
        "Longitude": -118.375767695,
        "Cuisine": "Italian",
        "Price Range": "$",
        "Rating": 3.8,
        "Review Count": 194
    },
    {
        "Name": "The Coop Pizza",
        "Address": "10006 National Blvd, Los Angeles, CA 90034",
        "Latitude": 34.0289553357,
        "Longitude": -118.4034553659,
        "Cuisine": "Italian, Pizza, Sandwiches",
        "Price Range": "$",
        "Rating": 4.3,
        "Review Count": 906
    },
    {
        "Name": "Joe's Pizza Downtown ",
        "Address": "613 S Spring St, Los Angeles, CA 90014",
        "Latitude": 34.04574,
        "Longitude": -118.25155,
        "Cuisine": "Italian",
        "Price Range": "$",
        "Rating": 3.3,
        "Review Count": 514
    },
    {
        "Name": "Hard Times Pizza",
        "Address": "1311 Glendale Blvd, Los Angeles, CA 90026",
        "Latitude": 34.078532,
        "Longitude": -118.2604251,
        "Cuisine": "Italian, Pasta Shops",
        "Price Range": "$",
        "Rating": 4.0,
        "Review Count": 324
    },
    {
        "Name": "Paninissimo",
        "Address": "1708 S Robertson Blvd, Los Angeles, CA 90035",
        "Latitude": 34.0485661742,
        "Longitude": -118.3854569122,
        "Cuisine": "Italian, Sandwiches, Food Trucks",
        "Price Range": "$",
        "Rating": 3.4,
        "Review Count": 14
    },
    {
        "Name": "Fratelli's Pizza",
        "Address": "3557 W 3rd St, Los Angeles, CA 90020",
        "Latitude": 34.06927,
        "Longitude": -118.2934,
        "Cuisine": "Italian",
        "Price Range": "$",
        "Rating": 3.3,
        "Review Count": 182
    },
    {
        "Name": "Tu PanYou Pizza",
        "Address": "3129 8th St, Los Angeles, CA 90005",
        "Latitude": 34.0578749,
        "Longitude": -118.2952199,
        "Cuisine": "Italian, Chicken Wings, Pizza",
        "Price Range": "$",
        "Rating": 3.1,
        "Review Count": 63
    },
    {
        "Name": "Sbarro",
        "Address": "201 N Los Angeles St, Ste 22A, Los Angeles, CA 90012",
        "Latitude": 34.0525621,
        "Longitude": -118.2419850417,
        "Cuisine": "Italian, Pizza",
        "Price Range": "$",
        "Rating": 2.6,
        "Review Count": 25
    },
    {
        "Name": "Pizza Moon",
        "Address": "2619 S Western Ave, Los Angeles, CA 90018",
        "Latitude": 34.032482,
        "Longitude": -118.309402,
        "Cuisine": "Italian, Sandwiches, Pizza",
        "Price Range": "$",
        "Rating": 3.2,
        "Review Count": 116
    },
    {
        "Name": "Rosso Oro\u2019s Pizzeria",
        "Address": "3500 S Figueroa St, Los Angeles, CA 90089",
        "Latitude": 34.019854,
        "Longitude": -118.281085,
        "Cuisine": "Italian, Pizza",
        "Price Range": "$",
        "Rating": 2.8,
        "Review Count": 72
    },
    {
        "Name": "Sbarro",
        "Address": "3650 W Martin Luther King Jr Blvd, Los Angeles, CA 90008",
        "Latitude": 34.01004787,
        "Longitude": -118.33692251,
        "Cuisine": "Italian",
        "Price Range": "$",
        "Rating": 2.2,
        "Review Count": 17
    },
    {
        "Name": "Osteria La Buca",
        "Address": "5210 Melrose Ave, Los Angeles, CA 90038",
        "Latitude": 34.0833366756,
        "Longitude": -118.313937181,
        "Cuisine": "Italian, Pizza, Cocktail Bars",
        "Price Range": "$$",
        "Rating": 4.1,
        "Review Count": 2359
    },
    {
        "Name": "Met Him At A Bar",
        "Address": "801 S La Brea, Los Angeles, CA 90036",
        "Latitude": 34.060415,
        "Longitude": -118.345018,
        "Cuisine": "Italian, Cocktail Bars",
        "Price Range": "$$",
        "Rating": 4.3,
        "Review Count": 854
    },
    {
        "Name": "Bacari W 3rd",
        "Address": "8030 3/4 W 3rd St, Los Angeles, CA 90048",
        "Latitude": 34.071706,
        "Longitude": -118.36479,
        "Cuisine": "Italian, New American, Breakfast & Brunch",
        "Price Range": "$$",
        "Rating": 4.4,
        "Review Count": 1362
    },
    {
        "Name": "Mauro Cafe",
        "Address": "8112 Melrose Ave, Los Angeles, CA 90046",
        "Latitude": 34.08347,
        "Longitude": -118.36648,
        "Cuisine": "Italian, Bars, Juice Bars & Smoothies",
        "Price Range": "$$",
        "Rating": 4.0,
        "Review Count": 299
    },
    {
        "Name": "PASTA e PASTA by Allegro",
        "Address": "432 E 2nd St, Los Angeles, CA 90012",
        "Latitude": 34.046459,
        "Longitude": -118.238403,
        "Cuisine": "Italian, Japanese",
        "Price Range": "$$",
        "Rating": 4.4,
        "Review Count": 1528
    },
    {
        "Name": "Miceli's ",
        "Address": "1646 N Las Palmas Ave, Los Angeles, CA 90028",
        "Latitude": 34.1012611389,
        "Longitude": -118.3359832764,
        "Cuisine": "Italian, Bars, Pizza",
        "Price Range": "$$",
        "Rating": 3.5,
        "Review Count": 1326
    },
    {
        "Name": "Ggiata Delicatessen",
        "Address": "5009 Melrose Ave, Los Angeles, CA 90038",
        "Latitude": 34.0837013764,
        "Longitude": -118.3096685695,
        "Cuisine": "Italian, Sandwiches, Delis",
        "Price Range": "$$",
        "Rating": 3.9,
        "Review Count": 493
    },
    {
        "Name": "Pasta Corner",
        "Address": "6333 W 3rd St, Ste 510, Original Farmers Market, Los Angeles, CA 90036",
        "Latitude": 34.072004,
        "Longitude": -118.360348,
        "Cuisine": "Italian",
        "Price Range": "$$",
        "Rating": 4.0,
        "Review Count": 166
    },
    {
        "Name": "Pasta Sisters",
        "Address": "3343 W Pico Blvd, Los Angeles, CA 90019",
        "Latitude": 34.0476,
        "Longitude": -118.317234,
        "Cuisine": "Italian, Sandwiches, Delis",
        "Price Range": "$$",
        "Rating": 4.4,
        "Review Count": 2104
    },
    {
        "Name": "Jon & Vinny's Fairfax",
        "Address": "412 N Fairfax Ave, Los Angeles, CA 90036",
        "Latitude": 34.0786401,
        "Longitude": -118.3613451,
        "Cuisine": "Italian, Breakfast & Brunch, Pizza",
        "Price Range": "$$",
        "Rating": 3.7,
        "Review Count": 2639
    },
    {
        "Name": "Louise's Trattoria - Larchmont",
        "Address": "232 N Larchmont Blvd, Los Angeles, CA 90004",
        "Latitude": 34.07567,
        "Longitude": -118.32328,
        "Cuisine": "Italian, Caterers, Pizza",
        "Price Range": "$$",
        "Rating": 3.8,
        "Review Count": 432
    },
    {
        "Name": "Frankie's",
        "Address": "7228 Melrose Ave, Los Angeles, CA 90046",
        "Latitude": 34.08323,
        "Longitude": -118.34724,
        "Cuisine": "Italian",
        "Price Range": "$$",
        "Rating": 4.2,
        "Review Count": 526
    },
    {
        "Name": "Maccheroni Republic",
        "Address": "332 S Broadway, Los Angeles, CA 90013",
        "Latitude": 34.0500282777,
        "Longitude": -118.248528,
        "Cuisine": "Italian, Wine Bars",
        "Price Range": "$$",
        "Rating": 4.4,
        "Review Count": 4311
    },
    {
        "Name": "La Pergoletta",
        "Address": "1802 Hillhurst Ave, Los Angeles, CA 90027",
        "Latitude": 34.1037812,
        "Longitude": -118.2872479,
        "Cuisine": "Italian",
        "Price Range": "$$",
        "Rating": 4.3,
        "Review Count": 1449
    },
    {
        "Name": "Little Dom's",
        "Address": "2128 Hillhurst Ave, Los Angeles, CA 90027",
        "Latitude": 34.11092,
        "Longitude": -118.28721,
        "Cuisine": "Italian, Sandwiches, Salad",
        "Price Range": "$$",
        "Rating": 3.6,
        "Review Count": 1866
    },
    {
        "Name": "Spaccio Salumeria by Truffle Brothers",
        "Address": "4073 W Washington Blvd, Los Angeles, CA 90018",
        "Latitude": 34.04024,
        "Longitude": -118.32797,
        "Cuisine": "Italian",
        "Price Range": "$$",
        "Rating": 4.8,
        "Review Count": 149
    },
    {
        "Name": "Bottega Louie",
        "Address": "700 S Grand Ave, Los Angeles, CA 90017",
        "Latitude": 34.047056,
        "Longitude": -118.256544,
        "Cuisine": "Italian, Desserts, Breakfast & Brunch",
        "Price Range": "$$",
        "Rating": 4.1,
        "Review Count": 19149
    },
    {
        "Name": "Chicago Stuffed Pizza",
        "Address": "7965 Melrose Ave, Los Angeles, CA 90046",
        "Latitude": 34.08394517,
        "Longitude": -118.363314,
        "Cuisine": "Italian, Chicken Wings, Pizza",
        "Price Range": "$$",
        "Rating": 4.5,
        "Review Count": 389
    },
    {
        "Name": "Apollonia's Pizzeria",
        "Address": "5176 Wilshire Blvd, Los Angeles, CA 90036",
        "Latitude": 34.06188,
        "Longitude": -118.34278,
        "Cuisine": "Italian, Pizza, Salad",
        "Price Range": "$$",
        "Rating": 4.1,
        "Review Count": 1110
    },
    {
        "Name": "La Piazza the Grove",
        "Address": "189 The Grove Dr, Los Angeles, CA 90036",
        "Latitude": 34.0722533414,
        "Longitude": -118.357617,
        "Cuisine": "Italian",
        "Price Range": "$$",
        "Rating": 2.9,
        "Review Count": 1300
    },
    {
        "Name": "Ceci's Gastronomia",
        "Address": "2813 Sunset Blvd, Los Angeles, CA 90026",
        "Latitude": 34.08208,
        "Longitude": -118.27184,
        "Cuisine": "Italian, Soul Food, Sandwiches",
        "Price Range": "$$",
        "Rating": 4.7,
        "Review Count": 120
    },
    {
        "Name": "Heirloom Pizzeria",
        "Address": "7368 Melrose Ave, Los Angeles, CA 90046",
        "Latitude": 34.08344,
        "Longitude": -118.35048,
        "Cuisine": "Italian, Specialty Food, Pizza",
        "Price Range": "$$",
        "Rating": 4.8,
        "Review Count": 194
    },
    {
        "Name": "Andre's Italian Restaurant",
        "Address": "5400 Wilshire Blvd, Los Angeles, CA 90036",
        "Latitude": 34.0620713,
        "Longitude": -118.3464302,
        "Cuisine": "Italian, Pizza, Comfort Food",
        "Price Range": "$$",
        "Rating": 4.2,
        "Review Count": 1459
    },
    {
        "Name": "Burrata House",
        "Address": "3272 Motor Ave, Los Angeles, CA 90034",
        "Latitude": 34.02979,
        "Longitude": -118.410755,
        "Cuisine": "Italian, Pasta Shops, Sandwiches",
        "Price Range": "$$",
        "Rating": 4.4,
        "Review Count": 646
    },
    {
        "Name": "DeSano Pizza Bakery",
        "Address": "4959 Santa Monica Blvd, Los Angeles, CA 90029",
        "Latitude": 34.0910099739,
        "Longitude": -118.297762911,
        "Cuisine": "Italian, Pizza",
        "Price Range": "$$",
        "Rating": 4.4,
        "Review Count": 1834
    },
    {
        "Name": "All'Antico Vinaio",
        "Address": "3925 W 6th St, Los Angeles, CA 90020",
        "Latitude": 34.06365,
        "Longitude": -118.30882,
        "Cuisine": "Italian, Sandwiches",
        "Price Range": "$$",
        "Rating": 3.9,
        "Review Count": 127
    },
    {
        "Name": "Eataly Los Angeles",
        "Address": "10250 Santa Monica Blvd, Los Angeles, CA 90067",
        "Latitude": 34.059609,
        "Longitude": -118.419437,
        "Cuisine": "Italian",
        "Price Range": "$$",
        "Rating": 3.5,
        "Review Count": 2832
    },
    {
        "Name": "Pizzeria Vivoli & Italian Grill",
        "Address": "7994 Sunset Blvd, Los Angeles, CA 90046",
        "Latitude": 34.0974730227,
        "Longitude": -118.3643152233,
        "Cuisine": "Italian, Pizza",
        "Price Range": "$$",
        "Rating": 4.0,
        "Review Count": 982
    },
    {
        "Name": "Good Clean Fun",
        "Address": "868 S Olive St, Los Angeles, CA 90015",
        "Latitude": 34.0438777,
        "Longitude": -118.2578333,
        "Cuisine": "Italian, Wine Bars, Beer, Wine & Spirits",
        "Price Range": "$$",
        "Rating": 4.6,
        "Review Count": 155
    },
    {
        "Name": "Carrera Cafe",
        "Address": "8251 Melrose Ave, Los Angeles, CA 90046",
        "Latitude": 34.0838349,
        "Longitude": -118.3692845,
        "Cuisine": "Italian, Salad",
        "Price Range": "$$",
        "Rating": 4.0,
        "Review Count": 488
    },
    {
        "Name": "All'Acqua",
        "Address": "3280 Glendale Blvd, Los Angeles, CA 90039",
        "Latitude": 34.1184299,
        "Longitude": -118.25971,
        "Cuisine": "Italian, Pizza",
        "Price Range": "$$",
        "Rating": 4.0,
        "Review Count": 752
    },
    {
        "Name": "Angelini Alimentari",
        "Address": "7317 Beverly Blvd, Los Angeles, CA 90036",
        "Latitude": 34.07642,
        "Longitude": -118.34928,
        "Cuisine": "Italian, Breakfast & Brunch, Salad",
        "Price Range": "$$",
        "Rating": 4.7,
        "Review Count": 88
    },
    {
        "Name": "Best Fckn Pizza- Hollywood",
        "Address": "5907 Hollywood Blvd, Los Angeles, CA 90028",
        "Latitude": 34.101902,
        "Longitude": -118.318308,
        "Cuisine": "Italian",
        "Price Range": "$$",
        "Rating": 3.9,
        "Review Count": 153
    },
    {
        "Name": "Cafe Angelino",
        "Address": "8735 W 3rd St, Los Angeles, CA 90048",
        "Latitude": 34.0738,
        "Longitude": -118.382884,
        "Cuisine": "Italian",
        "Price Range": "$$",
        "Rating": 4.2,
        "Review Count": 413
    },
    {
        "Name": "Emilia",
        "Address": "8500 Burton Way, Los Angeles, CA 90048",
        "Latitude": 34.0715608476,
        "Longitude": -118.3773050721,
        "Cuisine": "Italian, Wine Bars, Breakfast & Brunch",
        "Price Range": "$$",
        "Rating": 4.4,
        "Review Count": 239
    },
    {
        "Name": "Propaganda Wine Bar",
        "Address": "950 E 3rd St, Los Angeles, CA 90013",
        "Latitude": 34.0458078,
        "Longitude": -118.2340710822,
        "Cuisine": "Italian, Pizza, Wine Bars",
        "Price Range": "$$",
        "Rating": 4.7,
        "Review Count": 201
    },
    {
        "Name": "Esco's New York Style Pizza",
        "Address": "4972 W Pico, Unit 101, Los Angeles, CA 90019",
        "Latitude": 34.0473827,
        "Longitude": -118.3455181,
        "Cuisine": "Italian, Venues & Event Spaces",
        "Price Range": "$$",
        "Rating": 4.8,
        "Review Count": 396
    },
    {
        "Name": "Pizzeria Sei",
        "Address": "8781 W Pico Blvd, Los Angeles, CA 90035",
        "Latitude": 34.0548249,
        "Longitude": -118.3832633,
        "Cuisine": "Italian",
        "Price Range": "$$",
        "Rating": 4.6,
        "Review Count": 690
    },
    {
        "Name": "Palermo Italian Restaurant",
        "Address": "1858 N Vermont Ave, Los Angeles, CA 90027",
        "Latitude": 34.10481,
        "Longitude": -118.291447,
        "Cuisine": "Italian, Pizza",
        "Price Range": "$$",
        "Rating": 4.2,
        "Review Count": 1839
    },
    {
        "Name": "El Sushi",
        "Address": "356 S Western Ave, Ste 106, Los Angeles, CA 90020",
        "Latitude": 34.0674473555,
        "Longitude": -118.3088191599,
        "Cuisine": "Japanese, Sushi Bars, Italian",
        "Price Range": "$$",
        "Rating": 4.7,
        "Review Count": 90
    },
    {
        "Name": "Caffe Concerto",
        "Address": "610 S Serrano Ave, Los Angeles, CA 90005",
        "Latitude": 34.063071,
        "Longitude": -118.306414,
        "Cuisine": "Italian, Cocktail Bars, Korean",
        "Price Range": "$$",
        "Rating": 3.9,
        "Review Count": 1506
    },
    {
        "Name": "Il Giardino",
        "Address": "3201 S Hoover St, Los Angeles, CA 90089",
        "Latitude": 34.0252676209,
        "Longitude": -118.2841348,
        "Cuisine": "Italian, Salad, Sandwiches",
        "Price Range": "$$",
        "Rating": 4.1,
        "Review Count": 108
    },
    {
        "Name": "La Pergoletta Deli",
        "Address": "1800 1/2 Hillhurst Ave, Los Angeles, CA 90027",
        "Latitude": 34.1038773367,
        "Longitude": -118.2869926852,
        "Cuisine": "Italian, Sandwiches, Delis",
        "Price Range": "$$",
        "Rating": 4.6,
        "Review Count": 46
    },
    {
        "Name": "Farfalla Trattoria",
        "Address": "1978 Hillhurst Ave, Los Angeles, CA 90027",
        "Latitude": 34.1074686,
        "Longitude": -118.2872751,
        "Cuisine": "Italian",
        "Price Range": "$$",
        "Rating": 3.8,
        "Review Count": 788
    },
    {
        "Name": "Proper Pizza and Pasta",
        "Address": "8570 W 3rd St, Los Angeles, CA 90048",
        "Latitude": 34.073388,
        "Longitude": -118.379187,
        "Cuisine": "Italian, Chicken Wings, Pizza",
        "Price Range": "$$",
        "Rating": 4.4,
        "Review Count": 151
    },
    {
        "Name": "Fat Tomato Pizza",
        "Address": "301 S Western Ave, Los Angeles, CA 90020",
        "Latitude": 34.068567,
        "Longitude": -118.309605,
        "Cuisine": "Italian, Pizza, Chicken Wings",
        "Price Range": "$$",
        "Rating": 4.3,
        "Review Count": 185
    },
    {
        "Name": "Raffallo's Pizza",
        "Address": "1657 N La Brea Ave, Los Angeles, CA 90028",
        "Latitude": 34.101424,
        "Longitude": -118.345432,
        "Cuisine": "Italian, Pizza, Sandwiches",
        "Price Range": "$$",
        "Rating": 3.5,
        "Review Count": 319
    },
    {
        "Name": "Potato Chips Deli -Beverly Grove",
        "Address": "308 N Stanley Ave, Los Angeles, CA 90036",
        "Latitude": 34.07649,
        "Longitude": -118.356184,
        "Cuisine": "Italian, Delis, Sandwiches",
        "Price Range": "$$",
        "Rating": 4.4,
        "Review Count": 314
    },
    {
        "Name": "Rocco's Neighborhood Pizza",
        "Address": "6335 Wilshire Blvd, Los Angeles, CA 90048",
        "Latitude": 34.0638546948,
        "Longitude": -118.3665203558,
        "Cuisine": "Italian, Pizza, Sandwiches",
        "Price Range": "$$",
        "Rating": 4.1,
        "Review Count": 735
    },
    {
        "Name": "Joe's Pizza Hollywood",
        "Address": "6504 Hollywood Blvd, Los Angeles, CA 90028",
        "Latitude": 34.1013469,
        "Longitude": -118.3312799,
        "Cuisine": "Italian",
        "Price Range": "$$",
        "Rating": 3.4,
        "Review Count": 774
    },
    {
        "Name": "South Philly Experience",
        "Address": "5408 W Pico Blvd, Los Angeles, CA 90019",
        "Latitude": 34.048304,
        "Longitude": -118.356223,
        "Cuisine": "Italian, Cheesesteaks, Sandwiches",
        "Price Range": "$$",
        "Rating": 4.3,
        "Review Count": 641
    },
    {
        "Name": "Eastside Italian Deli - Downtown L A",
        "Address": "1013 Alpine St, Los Angeles, CA 90012",
        "Latitude": 34.0651339,
        "Longitude": -118.2465961,
        "Cuisine": "Italian, Delis, Sandwiches",
        "Price Range": "$$",
        "Rating": 4.4,
        "Review Count": 1313
    },
    {
        "Name": "Miceli's",
        "Address": "3655 Cahuenga Blvd W, Los Angeles, CA 90068",
        "Latitude": 34.1346598492,
        "Longitude": -118.3610756958,
        "Cuisine": "Italian, Pizza",
        "Price Range": "$$",
        "Rating": 3.5,
        "Review Count": 1338
    },
    {
        "Name": "Il Capriccio on Vermont",
        "Address": "1757 N Vermont Ave, Los Angeles, CA 90027",
        "Latitude": 34.103042,
        "Longitude": -118.291857,
        "Cuisine": "Italian, Bars",
        "Price Range": "$$",
        "Rating": 4.2,
        "Review Count": 1109
    },
    {
        "Name": "Numero Uno Pizza",
        "Address": "5044 Wilshire Blvd, Los Angeles, CA 90036",
        "Latitude": 34.0618640681,
        "Longitude": -118.3392776634,
        "Cuisine": "Italian",
        "Price Range": "$$",
        "Rating": 4.1,
        "Review Count": 338
    },
    {
        "Name": "Olive Garden Italian Restaurant",
        "Address": "4835 Venice Blvd, Los Angeles, CA 90019",
        "Latitude": 34.04675201,
        "Longitude": -118.34179819,
        "Cuisine": "Italian, Salad, Soup",
        "Price Range": "$$",
        "Rating": 3.6,
        "Review Count": 201
    },
    {
        "Name": "Tuscan Son",
        "Address": "10700 Santa Monica Blvd, Ste 150, Los Angeles, CA 90025",
        "Latitude": 34.05157,
        "Longitude": -118.43192,
        "Cuisine": "Italian, Breakfast & Brunch, Caterers",
        "Price Range": "$$",
        "Rating": 4.5,
        "Review Count": 520
    },
    {
        "Name": "Vito's Pizza",
        "Address": "846 N La Cienega Blvd, Los Angeles, CA 90069",
        "Latitude": 34.08653,
        "Longitude": -118.37614,
        "Cuisine": "Italian, Pizza",
        "Price Range": "$$",
        "Rating": 4.0,
        "Review Count": 1315
    },
    {
        "Name": "Alfredo's Pizza",
        "Address": "5450 Pico Blvd, Ste 101, Los Angeles, CA 90019",
        "Latitude": 34.04854,
        "Longitude": -118.35732,
        "Cuisine": "Italian, Pizza",
        "Price Range": "$$",
        "Rating": 4.5,
        "Review Count": 229
    },
    {
        "Name": "Proper Pizza and Pasta",
        "Address": "1011 S Alvarado St, Los Angeles, CA 90006",
        "Latitude": 34.051521,
        "Longitude": -118.280395,
        "Cuisine": "Italian, Pizza, Chicken Wings",
        "Price Range": "$$",
        "Rating": 4.4,
        "Review Count": 320
    },
    {
        "Name": "Amante Restaurant",
        "Address": "123 E 9th St, Los Angeles, CA 90015",
        "Latitude": 34.041089,
        "Longitude": -118.254179,
        "Cuisine": "Italian, Bars",
        "Price Range": "$$",
        "Rating": 3.8,
        "Review Count": 986
    },
    {
        "Name": "Mozza2Go",
        "Address": "6610 Melrose Ave, Los Angeles, CA 90038",
        "Latitude": 34.08319,
        "Longitude": -118.33908,
        "Cuisine": "Italian, Pizza",
        "Price Range": "$$",
        "Rating": 3.3,
        "Review Count": 330
    },
    {
        "Name": "Raffallo's Pizza",
        "Address": "4874 Santa Monica Blvd, Los Angeles, CA 90029",
        "Latitude": 34.0904951514,
        "Longitude": -118.2959752481,
        "Cuisine": "Italian, Pizza, Sandwiches",
        "Price Range": "$$",
        "Rating": 4.1,
        "Review Count": 189
    },
    {
        "Name": "Speranza",
        "Address": "2547 Hyperion Ave, Los Angeles, CA 90027",
        "Latitude": 34.105764,
        "Longitude": -118.273017,
        "Cuisine": "Italian",
        "Price Range": "$$",
        "Rating": 3.8,
        "Review Count": 673
    },
    {
        "Name": "The Doughroom",
        "Address": "3409 Overland Ave, Los Angeles, CA 90034",
        "Latitude": 34.025540703,
        "Longitude": -118.4126439823,
        "Cuisine": "Italian, New American, Pizza",
        "Price Range": "$$",
        "Rating": 4.0,
        "Review Count": 917
    },
    {
        "Name": "Barbrix Restaurant & Wine Shop",
        "Address": "2442 Hyperion Ave, Los Angeles, CA 90027",
        "Latitude": 34.10407,
        "Longitude": -118.27294,
        "Cuisine": "Italian, Wine Bars, Beer, Wine & Spirits",
        "Price Range": "$$",
        "Rating": 3.8,
        "Review Count": 1246
    },
    {
        "Name": "JT Cafe",
        "Address": "231 Venice Blvd, Los Angeles, CA 90015",
        "Latitude": 34.0353979,
        "Longitude": -118.2654610479,
        "Cuisine": "Italian, American, Mexican",
        "Price Range": "$$",
        "Rating": 4.6,
        "Review Count": 71
    },
    {
        "Name": "Bacari W Adams",
        "Address": "2308 S Union Ave, Los Angeles, CA 90007",
        "Latitude": 34.034507,
        "Longitude": -118.283488,
        "Cuisine": "Italian, Breakfast & Brunch, New American",
        "Price Range": "$$",
        "Rating": 4.2,
        "Review Count": 1829
    },
    {
        "Name": "Trattoria Bella Roma SPQR",
        "Address": "1509 S Robertson Blvd, Los Angeles, CA 90035",
        "Latitude": 34.0519288866,
        "Longitude": -118.3844935263,
        "Cuisine": "Italian, Pizza, Salad",
        "Price Range": "$$",
        "Rating": 4.3,
        "Review Count": 619
    },
    {
        "Name": "La Pizza & La Pasta at Eataly Los Angeles",
        "Address": "10250 Santa Monica Blvd, Los Angeles, CA 90067",
        "Latitude": 34.0600464364,
        "Longitude": -118.4189910022,
        "Cuisine": "Italian",
        "Price Range": "$$",
        "Rating": 3.5,
        "Review Count": 726
    },
    {
        "Name": "Michelangelo Ristorante",
        "Address": "2742 Rowena Ave, Los Angeles, CA 90039",
        "Latitude": 34.1069829191,
        "Longitude": -118.2636238724,
        "Cuisine": "Italian, Pizza, Breakfast & Brunch",
        "Price Range": "$$",
        "Rating": 4.3,
        "Review Count": 1024
    },
    {
        "Name": "550 Pizza",
        "Address": "9301 W Pico Blvd, Los Angeles, CA 90035",
        "Latitude": 34.0557042693,
        "Longitude": -118.3929824,
        "Cuisine": "Italian, Pizza, Kosher",
        "Price Range": "$$",
        "Rating": 4.4,
        "Review Count": 19
    },
    {
        "Name": "IL Bambino Restaurant",
        "Address": "1403 S Hooper Ave, Los Angeles, CA 90021",
        "Latitude": 34.02647,
        "Longitude": -118.24329,
        "Cuisine": "Italian",
        "Price Range": "$$",
        "Rating": 4.5,
        "Review Count": 288
    },
    {
        "Name": "Colori Kitchen",
        "Address": "2019 Venice Blvd, Los Angeles, CA 90006",
        "Latitude": 34.043871,
        "Longitude": -118.301036,
        "Cuisine": "Italian",
        "Price Range": "$$",
        "Rating": 4.1,
        "Review Count": 1897
    },
    {
        "Name": "Pasta Roma",
        "Address": "2827 S Figueroa St, Los Angeles, CA 90007",
        "Latitude": 34.0256979,
        "Longitude": -118.2776066,
        "Cuisine": "Italian, Pizza, Sandwiches",
        "Price Range": "$$",
        "Rating": 3.5,
        "Review Count": 657
    },
    {
        "Name": "Julie Goes Green",
        "Address": "11140 Palms Blvd, Los Angeles, CA 90034",
        "Latitude": 34.0191773954,
        "Longitude": -118.4217288507,
        "Cuisine": "Italian, Vegan, Pizza",
        "Price Range": "$$",
        "Rating": 4.6,
        "Review Count": 403
    },
    {
        "Name": "Pizza Buona",
        "Address": "922 N Alvarado St, Ste C, Los Angeles, CA 90026",
        "Latitude": 34.0759909,
        "Longitude": -118.2640973,
        "Cuisine": "Italian, Sandwiches, Pizza",
        "Price Range": "$$",
        "Rating": 4.0,
        "Review Count": 604
    },
    {
        "Name": "Maria's Italian Kitchen - West Los Angeles",
        "Address": "10761 Pico Blvd, Los Angeles, CA 90064",
        "Latitude": 34.041194,
        "Longitude": -118.426917,
        "Cuisine": "Italian, Caterers, Breakfast & Brunch",
        "Price Range": "$$",
        "Rating": 3.7,
        "Review Count": 632
    },
    {
        "Name": "Toscanova",
        "Address": "10250 Santa Monica Blvd, Westfield Century City, Los Angeles, CA 90067",
        "Latitude": 34.0590918643,
        "Longitude": -118.4204534775,
        "Cuisine": "Italian, Wine Bars",
        "Price Range": "$$",
        "Rating": 3.0,
        "Review Count": 700
    },
    {
        "Name": "Pizza Next Door",
        "Address": "806 W 8th St, Unit B, Los Angeles, CA 90017",
        "Latitude": 34.04732,
        "Longitude": -118.26043,
        "Cuisine": "Italian, Pizza",
        "Price Range": "$$",
        "Rating": 4.1,
        "Review Count": 501
    },
    {
        "Name": "Lenzini's Pizza",
        "Address": "3500 Overland Ave 120, Ste 120, Los Angeles, CA 90034",
        "Latitude": 34.024623,
        "Longitude": -118.4110632,
        "Cuisine": "Italian, Salad, Pizza",
        "Price Range": "$$",
        "Rating": 4.0,
        "Review Count": 707
    },
    {
        "Name": "Pagliacci's Trattoria Taverna",
        "Address": "4366 Coldwater Canyon Ave, Los Angeles, CA 91604",
        "Latitude": 34.1501605,
        "Longitude": -118.4134415,
        "Cuisine": "Italian, Pizza, Bars",
        "Price Range": "$$",
        "Rating": 3.8,
        "Review Count": 499
    },
    {
        "Name": "Johnnies",
        "Address": "10251 Santa Monica Blvd, Los Angeles, CA 90067",
        "Latitude": 34.060086,
        "Longitude": -118.420836,
        "Cuisine": "Italian, Pizza",
        "Price Range": "$$",
        "Rating": 3.4,
        "Review Count": 148
    },
    {
        "Name": "Knead noods Pasta Bar",
        "Address": "317 S Broadway, Grand Central Market, Los Angeles, CA 90013",
        "Latitude": 34.0505289,
        "Longitude": -118.2486189,
        "Cuisine": "Italian, Sandwiches, Pasta Shops",
        "Price Range": "$$",
        "Rating": 3.5,
        "Review Count": 380
    },
    {
        "Name": "Pastina",
        "Address": "2260 Westwood Blvd, Los Angeles, CA 90064",
        "Latitude": 34.0431365967,
        "Longitude": -118.4306564331,
        "Cuisine": "Italian",
        "Price Range": "$$",
        "Rating": 4.0,
        "Review Count": 329
    },
    {
        "Name": "Pitfire Artisan Pizza",
        "Address": "2018 Westwood Blvd, Los Angeles, CA 90025",
        "Latitude": 34.0465088266,
        "Longitude": -118.433719712,
        "Cuisine": "Italian, Pizza, Sandwiches",
        "Price Range": "$$",
        "Rating": 3.8,
        "Review Count": 991
    },
    {
        "Name": "Trattoria Natalie",
        "Address": "8681 W Pico Blvd, Los Angeles, CA 90035",
        "Latitude": 34.0544607,
        "Longitude": -118.3812594,
        "Cuisine": "Italian, Kosher, Vegetarian",
        "Price Range": "$$",
        "Rating": 3.3,
        "Review Count": 204
    },
    {
        "Name": "Viztango Cafe",
        "Address": "3017 S Figueroa St, Los Angeles, CA 90007",
        "Latitude": 34.024869,
        "Longitude": -118.278612,
        "Cuisine": "Italian, Pizza",
        "Price Range": "$$",
        "Rating": 3.2,
        "Review Count": 442
    },
    {
        "Name": "Numero Uno Pizza Pasta",
        "Address": "5770 Obama Blvd, Los Angeles, CA 90016",
        "Latitude": 34.0214835348,
        "Longitude": -118.371615,
        "Cuisine": "Italian, Pizza",
        "Price Range": "$$",
        "Rating": 3.1,
        "Review Count": 133
    },
    {
        "Name": "Mama's Original Pizza & Pasta",
        "Address": "3311 Motor Ave, Los Angeles, CA 90034",
        "Latitude": 34.02877,
        "Longitude": -118.4108,
        "Cuisine": "Italian, Pizza",
        "Price Range": "$$",
        "Rating": 3.6,
        "Review Count": 310
    },
    {
        "Name": "Smeraldi's",
        "Address": "506 South Grand Avenue, Los Angeles, CA 90071",
        "Latitude": 34.0491659369,
        "Longitude": -118.2535207272,
        "Cuisine": "Italian, Breakfast & Brunch, Buffets",
        "Price Range": "$$",
        "Rating": 3.6,
        "Review Count": 113
    },
    {
        "Name": "Oh Mama Mia",
        "Address": "1300 S San Pedro St, Los Angeles, CA 90015",
        "Latitude": 34.0323181152,
        "Longitude": -118.2539138794,
        "Cuisine": "Italian",
        "Price Range": "$$",
        "Rating": 3.1,
        "Review Count": 26
    },
    {
        "Name": "Trattoria ToGo",
        "Address": "10643 W Pico Blvd, Los Angeles, CA 90064",
        "Latitude": 34.0428397144,
        "Longitude": -118.4233940728,
        "Cuisine": "Italian, Food Delivery Services",
        "Price Range": "$$",
        "Rating": 3.3,
        "Review Count": 6
    },
    {
        "Name": "Hoboken",
        "Address": "2323 Westwood Blvd, Los Angeles, CA 90064",
        "Latitude": 34.04164,
        "Longitude": -118.43024,
        "Cuisine": "Italian, Pizza, Sandwiches",
        "Price Range": "$$",
        "Rating": 3.2,
        "Review Count": 91
    },
    {
        "Name": "Cafe Anzio",
        "Address": "807 E 12th St, Ste 249, Los Angeles, CA 90021",
        "Latitude": 34.0325331,
        "Longitude": -118.2505834,
        "Cuisine": "American, Italian, Thai",
        "Price Range": "$$",
        "Rating": 3.9,
        "Review Count": 14
    },
    {
        "Name": "L'Antica Pizzeria Da Michele",
        "Address": "1534 N Mccadden Pl, Los Angeles, CA 90028",
        "Latitude": 34.0990608284,
        "Longitude": -118.3373093612,
        "Cuisine": "Italian, Breakfast & Brunch, Pizza",
        "Price Range": "$$$",
        "Rating": 4.3,
        "Review Count": 2341
    },
    {
        "Name": "Jemma Hollywood",
        "Address": "1717 Vine Street, Los Angeles, CA 90028",
        "Latitude": 34.1023750128,
        "Longitude": -118.3273316696,
        "Cuisine": "Italian",
        "Price Range": "$$$",
        "Rating": 4.4,
        "Review Count": 229
    },
    {
        "Name": "Rao's Hollywood",
        "Address": "1006 Seward St, Los Angeles, CA 90038",
        "Latitude": 34.0891889,
        "Longitude": -118.3329546313,
        "Cuisine": "Italian",
        "Price Range": "$$$",
        "Rating": 4.3,
        "Review Count": 754
    },
    {
        "Name": "Osteria Mamma",
        "Address": "5732 Melrose Ave, Los Angeles, CA 90038",
        "Latitude": 34.0833586784,
        "Longitude": -118.3247249393,
        "Cuisine": "Italian, Wine Bars",
        "Price Range": "$$$",
        "Rating": 4.0,
        "Review Count": 1984
    },
    {
        "Name": "La Bettola Di Terroni",
        "Address": "225 N Larchmont Blvd, Los Angeles, CA 90004",
        "Latitude": 34.075386,
        "Longitude": -118.323919,
        "Cuisine": "Italian",
        "Price Range": "$$$",
        "Rating": 3.1,
        "Review Count": 68
    },
    {
        "Name": "Cento",
        "Address": "4921 W Adams Blvd, Los Angeles, CA 90016",
        "Latitude": 34.0327954,
        "Longitude": -118.3477496,
        "Cuisine": "Italian, Mediterranean, Tapas/Small Plates",
        "Price Range": "$$$",
        "Rating": 4.5,
        "Review Count": 917
    },
    {
        "Name": "Bottega Louie",
        "Address": "8936 Santa Monica Blvd, Los Angeles, CA 90069",
        "Latitude": 34.083913,
        "Longitude": -118.384953,
        "Cuisine": "Italian, Bakeries, Desserts",
        "Price Range": "$$$",
        "Rating": 4.1,
        "Review Count": 985
    },
    {
        "Name": "Angelini Osteria",
        "Address": "7313 Beverly Blvd, Los Angeles, CA 90036",
        "Latitude": 34.07642,
        "Longitude": -118.34909,
        "Cuisine": "Italian, Wine Bars, Pizza",
        "Price Range": "$$$",
        "Rating": 4.2,
        "Review Count": 2219
    },
    {
        "Name": "Donna's",
        "Address": "1538 Sunset Blvd, Los Angeles, CA 90026",
        "Latitude": 34.07619,
        "Longitude": -118.25656,
        "Cuisine": "Italian",
        "Price Range": "$$$",
        "Rating": 4.3,
        "Review Count": 382
    },
    {
        "Name": "Antico Nuovo",
        "Address": "4653 Beverly Blvd, Los Angeles, CA 90004",
        "Latitude": 34.07657,
        "Longitude": -118.31101,
        "Cuisine": "Italian",
        "Price Range": "$$$",
        "Rating": 4.1,
        "Review Count": 305
    },
    {
        "Name": "Pace",
        "Address": "2100 Laurel Canyon Blvd, Los Angeles, CA 90046",
        "Latitude": 34.10906,
        "Longitude": -118.3697,
        "Cuisine": "Italian, Pizza, Cocktail Bars",
        "Price Range": "$$$",
        "Rating": 4.1,
        "Review Count": 1367
    },
    {
        "Name": "Ronan",
        "Address": "7315 Melrose Ave, Los Angeles, CA 90046",
        "Latitude": 34.0838245114,
        "Longitude": -118.3492837788,
        "Cuisine": "Italian, Cocktail Bars, Pizza",
        "Price Range": "$$$",
        "Rating": 4.0,
        "Review Count": 384
    },
    {
        "Name": "Marino Restaurant",
        "Address": "6001 Melrose Ave, Los Angeles, CA 90038",
        "Latitude": 34.083621,
        "Longitude": -118.331184,
        "Cuisine": "Italian",
        "Price Range": "$$$",
        "Rating": 4.4,
        "Review Count": 502
    },
    {
        "Name": "UOVO | Mid-Wilshire",
        "Address": "6245 Wilshire Blvd, Ste 103, Los Angeles, CA 90048",
        "Latitude": 34.063692,
        "Longitude": -118.364864,
        "Cuisine": "Italian, Noodles",
        "Price Range": "$$$",
        "Rating": 4.3,
        "Review Count": 491
    },
    {
        "Name": "Terroni",
        "Address": "7605 Beverly Blvd, Los Angeles, CA 90036",
        "Latitude": 34.0762749,
        "Longitude": -118.3555375,
        "Cuisine": "Italian, Pizza",
        "Price Range": "$$$",
        "Rating": 3.5,
        "Review Count": 1423
    },
    {
        "Name": "n10 Los Angeles",
        "Address": "8436 W 3rd St, Ste 100, Los Angeles, CA 90048",
        "Latitude": 34.072889,
        "Longitude": -118.3745502,
        "Cuisine": "Italian, Bars",
        "Price Range": "$$$",
        "Rating": 4.0,
        "Review Count": 370
    },
    {
        "Name": "Bacetti Trattoria",
        "Address": "1509 Echo Park Ave, Los Angeles, CA 90026",
        "Latitude": 34.0802108657,
        "Longitude": -118.2554394126,
        "Cuisine": "Italian, Pasta Shops, Pizza",
        "Price Range": "$$$",
        "Rating": 4.1,
        "Review Count": 274
    },
    {
        "Name": "Amarone Kitchen & Wine",
        "Address": "7151 Beverly Blvd, Los Angeles, CA 90036",
        "Latitude": 34.0763232171,
        "Longitude": -118.345337,
        "Cuisine": "Italian",
        "Price Range": "$$$",
        "Rating": 4.3,
        "Review Count": 282
    },
    {
        "Name": "Savoca",
        "Address": "900 W Olympic Blvd, Los Angeles, CA 90015",
        "Latitude": 34.0451611,
        "Longitude": -118.2666712,
        "Cuisine": "Italian",
        "Price Range": "$$$",
        "Rating": 3.4,
        "Review Count": 70
    },
    {
        "Name": "Spina",
        "Address": "3193 Glendale Blvd, Los Angeles, CA 90039",
        "Latitude": 34.11792,
        "Longitude": -118.26131,
        "Cuisine": "Italian, Desserts, Wine Bars",
        "Price Range": "$$$",
        "Rating": 4.2,
        "Review Count": 67
    },
    {
        "Name": "Wood",
        "Address": "2861 Sunset Blvd, Los Angeles, CA 90026",
        "Latitude": 34.08292,
        "Longitude": -118.27289,
        "Cuisine": "Italian, Wine Bars, Pizza",
        "Price Range": "$$$",
        "Rating": 3.9,
        "Review Count": 1150
    },
    {
        "Name": "Locanda Veneta",
        "Address": "8638 W 3rd St, Los Angeles, CA 90048",
        "Latitude": 34.07339,
        "Longitude": -118.3809,
        "Cuisine": "Italian",
        "Price Range": "$$$",
        "Rating": 4.3,
        "Review Count": 594
    },
    {
        "Name": "The Nice Guy",
        "Address": "401 N La Cienega Blvd, Los Angeles, CA 90048",
        "Latitude": 34.0787255252,
        "Longitude": -118.3768557,
        "Cuisine": "Italian, Lounges, Cocktail Bars",
        "Price Range": "$$$",
        "Rating": 3.0,
        "Review Count": 782
    },
    {
        "Name": "Rossoblu",
        "Address": "1124 San Julian St, Los Angeles, CA 90015",
        "Latitude": 34.034941,
        "Longitude": -118.253378,
        "Cuisine": "Italian, Breakfast & Brunch, Cocktail Bars",
        "Price Range": "$$$",
        "Rating": 4.0,
        "Review Count": 946
    },
    {
        "Name": "Capri at Eataly Los Angeles",
        "Address": "10250 Santa Monica Blvd, Los Angeles, CA 90067",
        "Latitude": 34.0604590044,
        "Longitude": -118.4186997919,
        "Cuisine": "Italian, Seafood, Cocktail Bars",
        "Price Range": "$$$",
        "Rating": 3.5,
        "Review Count": 168
    },
    {
        "Name": "Vespaio",
        "Address": "225 S Grand Ave, Los Angeles, CA 90012",
        "Latitude": 34.0538862752,
        "Longitude": -118.2507203049,
        "Cuisine": "Italian, Pizza, Wine Bars",
        "Price Range": "$$$",
        "Rating": 3.5,
        "Review Count": 895
    },
    {
        "Name": "Della Terra Restaurant",
        "Address": "7675 Beverly Blvd, Los Angeles, CA 90036",
        "Latitude": 34.0762749,
        "Longitude": -118.3571066,
        "Cuisine": "Italian, Pizza, Pasta Shops",
        "Price Range": "$$$",
        "Rating": 4.0,
        "Review Count": 903
    },
    {
        "Name": "Blair's Restaurant",
        "Address": "2903 Rowena Ave, Los Angeles, CA 90039",
        "Latitude": 34.10851,
        "Longitude": -118.26806,
        "Cuisine": "Italian, Wine Bars, Pizza",
        "Price Range": "$$$",
        "Rating": 4.0,
        "Review Count": 641
    },
    {
        "Name": "Vicini",
        "Address": "10645 W Pico Blvd, Los Angeles, CA 90064",
        "Latitude": 34.042826,
        "Longitude": -118.423481,
        "Cuisine": "Italian, Breakfast & Brunch, Pizza",
        "Price Range": "$$$",
        "Rating": 4.7,
        "Review Count": 90
    },
    {
        "Name": "Mona Pasta Bar",
        "Address": "111 W 9th St, Los Angeles, CA 90015",
        "Latitude": 34.041994,
        "Longitude": -118.25522,
        "Cuisine": "Italian, Wine Bars",
        "Price Range": "$$$",
        "Rating": 4.6,
        "Review Count": 117
    },
    {
        "Name": "The Factory Kitchen",
        "Address": "1300 Factory Pl, Ste 101, Los Angeles, CA 90013",
        "Latitude": 34.038867,
        "Longitude": -118.23602,
        "Cuisine": "Italian",
        "Price Range": "$$$",
        "Rating": 4.0,
        "Review Count": 1618
    },
    {
        "Name": "Culina Ristorante & Caffe",
        "Address": "300 S Doheny Dr, Los Angeles, CA 90048",
        "Latitude": 34.072957,
        "Longitude": -118.389138,
        "Cuisine": "Italian, Bars, Venues & Event Spaces",
        "Price Range": "$$$",
        "Rating": 3.9,
        "Review Count": 609
    },
    {
        "Name": "Hearts & Flame",
        "Address": "225-227 S Garey St, Los Angeles, CA 90012",
        "Latitude": 34.046444473,
        "Longitude": -118.2353367,
        "Cuisine": "Italian, Wine Bars, Cocktail Bars",
        "Price Range": "$$$",
        "Rating": 4.0,
        "Review Count": 320
    },
    {
        "Name": "Carmine's Restaurant",
        "Address": "10463 Santa Monica Blvd, Los Angeles, CA 90025",
        "Latitude": 34.056456189,
        "Longitude": -118.4262053828,
        "Cuisine": "Italian, Wine Bars",
        "Price Range": "$$$",
        "Rating": 3.9,
        "Review Count": 263
    },
    {
        "Name": "Matteo's",
        "Address": "2321 Westwood Blvd, Los Angeles, CA 90064",
        "Latitude": 34.0417855,
        "Longitude": -118.4301057,
        "Cuisine": "Italian",
        "Price Range": "$$$",
        "Rating": 3.8,
        "Review Count": 190
    },
    {
        "Name": "Ristorante Per L\u2019Ora",
        "Address": "649 S Olive St, Los Angeles, CA 90014",
        "Latitude": 34.046986,
        "Longitude": -118.255475,
        "Cuisine": "Italian, Venues & Event Spaces, Cocktail Bars",
        "Price Range": "$$$",
        "Rating": 4.1,
        "Review Count": 121
    },
    {
        "Name": "DRAGO Centro",
        "Address": "525 S Flower St, Ste 120, Los Angeles, CA 90071",
        "Latitude": 34.0514,
        "Longitude": -118.257504,
        "Cuisine": "Italian",
        "Price Range": "$$$",
        "Rating": 3.8,
        "Review Count": 1713
    },
    {
        "Name": "Mr. C Restaurant",
        "Address": "1224 Beverwil Dr, Los Angeles, CA 90035",
        "Latitude": 34.05536,
        "Longitude": -118.39851,
        "Cuisine": "Italian, Lounges",
        "Price Range": "$$$",
        "Rating": 3.3,
        "Review Count": 220
    },
    {
        "Name": "Mother Wolf",
        "Address": "1545 Wilcox Ave, Los Angeles, CA 90028",
        "Latitude": 34.09932,
        "Longitude": -118.33115,
        "Cuisine": "Italian",
        "Price Range": "$$$$",
        "Rating": 4.1,
        "Review Count": 1115
    },
    {
        "Name": "Da Barbara",
        "Address": "6411 Fountain Ave, LW 4, Los Angeles, CA 90028",
        "Latitude": 34.0945698491,
        "Longitude": -118.32926,
        "Cuisine": "Italian, Desserts",
        "Price Range": "$$$$",
        "Rating": 5.0,
        "Review Count": 41
    },
    {
        "Name": "Osteria Mozza",
        "Address": "6602 Melrose Ave, Los Angeles, CA 90038",
        "Latitude": 34.08319,
        "Longitude": -118.33881,
        "Cuisine": "Italian, Wine Bars",
        "Price Range": "$$$$",
        "Rating": 3.9,
        "Review Count": 3412
    },
    {
        "Name": "Chi Spacca",
        "Address": "6610 Melrose Ave, Los Angeles, CA 90038",
        "Latitude": 34.08319,
        "Longitude": -118.33908,
        "Cuisine": "Italian",
        "Price Range": "$$$$",
        "Rating": 4.2,
        "Review Count": 721
    },
    {
        "Name": "Orsa & Winston",
        "Address": "122 W 4th St, Los Angeles, CA 90013",
        "Latitude": 34.0484549,
        "Longitude": -118.2479646,
        "Cuisine": "Italian, Japanese",
        "Price Range": "$$$$",
        "Rating": 4.2,
        "Review Count": 630
    },
    {
        "Name": "Cicada Restaurant and Lounge",
        "Address": "617 S Olive St, Ste 100, Los Angeles, CA 90014",
        "Latitude": 34.047835,
        "Longitude": -118.254873,
        "Cuisine": "Italian, Venues & Event Spaces, Music Venues",
        "Price Range": "$$$$",
        "Rating": 3.9,
        "Review Count": 592
    },
    {
        "Name": "Tacos Guelaguetza",
        "Address": "5848 Melrose Ave, Los Angeles, CA 90038",
        "Latitude": 34.0836308305,
        "Longitude": -118.3271735117,
        "Cuisine": "Mexican, Food Stands",
        "Price Range": "$",
        "Rating": 4.8,
        "Review Count": 160
    },
    {
        "Name": "Tacos 1986",
        "Address": "7235 Beverly Blvd, Los Angeles, CA 90036",
        "Latitude": 34.07628483,
        "Longitude": -118.34725583,
        "Cuisine": "Mexican",
        "Price Range": "$",
        "Rating": 3.9,
        "Review Count": 305
    },
    {
        "Name": "Zermenos Restaurant",
        "Address": "6115 Santa Monica Blvd, Ste A, Los Angeles, CA 90038",
        "Latitude": 34.091152,
        "Longitude": -118.3225606,
        "Cuisine": "Mexican, Breakfast & Brunch, Seafood",
        "Price Range": "$",
        "Rating": 4.1,
        "Review Count": 311
    },
    {
        "Name": "El Comal",
        "Address": "5465 Santa Monica Blvd, Los Angeles, CA 90029",
        "Latitude": 34.09105,
        "Longitude": -118.30819,
        "Cuisine": "Mexican",
        "Price Range": "$",
        "Rating": 4.5,
        "Review Count": 94
    },
    {
        "Name": "Leo's Tacos Truck",
        "Address": "5525 Sunset Blvd, Los Angeles, CA 90028",
        "Latitude": 34.0986671448,
        "Longitude": -118.3098907471,
        "Cuisine": "Mexican, Food Trucks",
        "Price Range": "$",
        "Rating": 4.2,
        "Review Count": 476
    },
    {
        "Name": "Cactus Taqueria #1",
        "Address": "950 Vine St, Los Angeles, CA 90038",
        "Latitude": 34.08827,
        "Longitude": -118.32633,
        "Cuisine": "Mexican",
        "Price Range": "$",
        "Rating": 3.7,
        "Review Count": 1044
    },
    {
        "Name": "Guac Daddy Taqueria",
        "Address": "1824 N Vermont Ave, Los Angeles, CA 90027",
        "Latitude": 34.1044053,
        "Longitude": -118.2915832,
        "Cuisine": "Mexican",
        "Price Range": "$",
        "Rating": 4.3,
        "Review Count": 108
    },
    {
        "Name": "Tacos El Chido",
        "Address": "6840 Santa Monica Blvd, Los Angeles, CA 90038",
        "Latitude": 34.0904963929,
        "Longitude": -118.3394747807,
        "Cuisine": "Mexican, Food Trucks",
        "Price Range": "$",
        "Rating": 4.6,
        "Review Count": 60
    },
    {
        "Name": "Los Burritos",
        "Address": "4929 W Sunset Blvd, Los Angeles, CA 90027",
        "Latitude": 34.098357,
        "Longitude": -118.297015,
        "Cuisine": "Mexican",
        "Price Range": "$",
        "Rating": 2.8,
        "Review Count": 363
    },
    {
        "Name": "Tacos Gavilan",
        "Address": "7070 W Sunset Blvd, Los Angeles, CA 90028",
        "Latitude": 34.0977370783,
        "Longitude": -118.3438663,
        "Cuisine": "Mexican",
        "Price Range": "$",
        "Rating": 3.5,
        "Review Count": 319
    },
    {
        "Name": "Tacos Dorados",
        "Address": "802 N Vermont Ave, Los Angeles, CA 90029",
        "Latitude": 34.0860326,
        "Longitude": -118.2915951,
        "Cuisine": "Mexican, Street Vendors",
        "Price Range": "$",
        "Rating": 5.0,
        "Review Count": 2
    },
    {
        "Name": "California Grill Restaurant",
        "Address": "800 N Virgil Ave, Los Angeles, CA 90029",
        "Latitude": 34.08592,
        "Longitude": -118.28663,
        "Cuisine": "Mexican, Salvadoran",
        "Price Range": "$",
        "Rating": 4.5,
        "Review Count": 149
    },
    {
        "Name": "Mi Teresita Taco Truck",
        "Address": "1174 Western Blvd, Los Angeles, CA 90029",
        "Latitude": 34.0927014635,
        "Longitude": -118.3089589,
        "Cuisine": "Mexican, Food Stands",
        "Price Range": "$",
        "Rating": 4.6,
        "Review Count": 99
    },
    {
        "Name": "Leo's Tacos Truck",
        "Address": "1515 S La Brea Ave, Los Angeles, CA 90019",
        "Latitude": 34.0462172234,
        "Longitude": -118.3457807644,
        "Cuisine": "Mexican, Food Trucks",
        "Price Range": "$",
        "Rating": 4.3,
        "Review Count": 2399
    },
    {
        "Name": "Burritos Sahuayo",
        "Address": "1ST And Western Ave, Los Angeles, CA 90189",
        "Latitude": 34.07307,
        "Longitude": -118.309189,
        "Cuisine": "Mexican, Food Trucks",
        "Price Range": "$",
        "Rating": 4.7,
        "Review Count": 40
    },
    {
        "Name": "Brothers Cousins Tacos",
        "Address": "11341 National Blvd, Los Angeles, CA 90064",
        "Latitude": 34.0267673527,
        "Longitude": -118.4319919153,
        "Cuisine": "Mexican, Food Stands",
        "Price Range": "$",
        "Rating": 4.6,
        "Review Count": 591
    },
    {
        "Name": "Tacos Al Pastor",
        "Address": "5179 Santa Monica Blvd, Los Angeles, CA 90029",
        "Latitude": 34.09105,
        "Longitude": -118.30227,
        "Cuisine": "Mexican",
        "Price Range": "$",
        "Rating": 3.8,
        "Review Count": 129
    },
    {
        "Name": "El Cartel",
        "Address": "5515 Wilshire Blvd, Los Angeles, CA 90036",
        "Latitude": 34.062512151,
        "Longitude": -118.3488145693,
        "Cuisine": "Mexican",
        "Price Range": "$",
        "Rating": 4.1,
        "Review Count": 655
    },
    {
        "Name": "Taco Bell",
        "Address": "6741 Hollywood Blvd, Los Angeles, CA 90028",
        "Latitude": 34.10172,
        "Longitude": -118.33717,
        "Cuisine": " Mexican, Fast Food",
        "Price Range": "$",
        "Rating": 3.9,
        "Review Count": 50
    },
    {
        "Name": "Cielito Lindo",
        "Address": "23 Olvera St, Los Angeles, CA 90012",
        "Latitude": 34.0575246,
        "Longitude": -118.2381192,
        "Cuisine": "Mexican",
        "Price Range": "$",
        "Rating": 3.9,
        "Review Count": 1113
    },
    {
        "Name": "Best Fish Taco In Ensenada",
        "Address": "1650 Hillhurst Ave, Los Angeles, CA 90027",
        "Latitude": 34.1010002,
        "Longitude": -118.2872851,
        "Cuisine": "Mexican",
        "Price Range": "$",
        "Rating": 3.9,
        "Review Count": 2360
    },
    {
        "Name": "Tortilleria La California",
        "Address": "2241 Cypress Ave, Los Angeles, CA 90065",
        "Latitude": 34.10468,
        "Longitude": -118.2375,
        "Cuisine": "Mexican, Bakeries, New American",
        "Price Range": "$",
        "Rating": 4.3,
        "Review Count": 48
    },
    {
        "Name": "Sabor Latinos",
        "Address": "4908 Fountain Ave, Los Angeles, CA 90029",
        "Latitude": 34.0953056,
        "Longitude": -118.2963928,
        "Cuisine": "Salvadoran, Mexican",
        "Price Range": "$",
        "Rating": 4.0,
        "Review Count": 25
    },
    {
        "Name": "Frogtowns Gourmet Tacos",
        "Address": "2929 Knox Ave, Los Angeles, CA 90039",
        "Latitude": 34.1034919,
        "Longitude": -118.2431171,
        "Cuisine": "Mexican, Tacos, Breakfast & Brunch, Food Trucks",
        "Price Range": "$",
        "Rating": 4.9,
        "Review Count": 160
    },
    {
        "Name": "La Cocinita",
        "Address": "4379 W Pico Blvd, Los Angeles, CA 90019",
        "Latitude": 34.0482851,
        "Longitude": -118.3303905,
        "Cuisine": "Mexican, Salvadoran, Soup",
        "Price Range": "$",
        "Rating": 4.5,
        "Review Count": 59
    },
    {
        "Name": "Tacos El Compita",
        "Address": "4477 W Pico Blvd, Los Angeles, CA 90019",
        "Latitude": 34.0485400612,
        "Longitude": -118.3327347413,
        "Cuisine": "Mexican, Street Vendors",
        "Price Range": "$",
        "Rating": 4.3,
        "Review Count": 399
    },
    {
        "Name": "Se\u00f1orita's Tamales",
        "Address": "Palms Blvd National Blvd, Los Angeles, CA 90034",
        "Latitude": 34.0301138865,
        "Longitude": -118.4027455923,
        "Cuisine": "Mexican, Caterers, Vegan",
        "Price Range": "$",
        "Rating": 4.8,
        "Review Count": 50
    },
    {
        "Name": "Los Burritos",
        "Address": "6517 Hollywood Blvd, Los Angeles, CA 90028",
        "Latitude": 34.1017249,
        "Longitude": -118.3317274,
        "Cuisine": "Mexican",
        "Price Range": "$",
        "Rating": 3.6,
        "Review Count": 282
    },
    {
        "Name": "Guisados DTLA",
        "Address": "541 S Spring St, Ste 101, Los Angeles, CA 90013",
        "Latitude": 34.0465305975,
        "Longitude": -118.2506798519,
        "Cuisine": "Mexican",
        "Price Range": "$",
        "Rating": 4.3,
        "Review Count": 2165
    },
    {
        "Name": "Alejandra\u2019s Quesadilla Cart",
        "Address": "1246 Echo Park Ave, Los Angeles, CA 90026",
        "Latitude": 34.0760671,
        "Longitude": -118.257599,
        "Cuisine": "Mexican, Food Stands",
        "Price Range": "$",
        "Rating": 4.6,
        "Review Count": 180
    },
    {
        "Name": "La Reyna Tacos",
        "Address": "5400 Romaine St, Los Angeles, CA 90038",
        "Latitude": 34.0884723905,
        "Longitude": -118.3095598,
        "Cuisine": "Mexican, Food Trucks",
        "Price Range": "$",
        "Rating": 4.5,
        "Review Count": 50
    },
    {
        "Name": "El Chato Taco Truck",
        "Address": "5300 W Olympic Blvd, Los Angeles, CA 90019",
        "Latitude": 34.0571251,
        "Longitude": -118.346074,
        "Cuisine": "Mexican, Food Trucks",
        "Price Range": "$",
        "Rating": 4.5,
        "Review Count": 1443
    },
    {
        "Name": "CJ\u2019s Cafe",
        "Address": "5501 W Pico Blvd, Los Angeles, CA 90019",
        "Latitude": 34.04927,
        "Longitude": -118.35761,
        "Cuisine": "Mexican, Soul Food, Breakfast & Brunch",
        "Price Range": "$",
        "Rating": 4.0,
        "Review Count": 706
    },
    {
        "Name": "Kogi BBQ Truck",
        "Address": "Los Angeles, CA 91604",
        "Latitude": 34.13736,
        "Longitude": -118.39007,
        "Cuisine": "Korean, Mexican, Food Trucks",
        "Price Range": "$",
        "Rating": 4.3,
        "Review Count": 85
    },
    {
        "Name": "Juanita's Caf\u00e9",
        "Address": "20 Olvera St, Los Angeles, CA 90012",
        "Latitude": 34.0578385926,
        "Longitude": -118.2375226347,
        "Cuisine": "Mexican",
        "Price Range": "$",
        "Rating": 4.3,
        "Review Count": 281
    },
    {
        "Name": "Kogi Taqueria",
        "Address": "3434 Overland Ave, Los Angeles, CA 90034",
        "Latitude": 34.0254459496,
        "Longitude": -118.4118827559,
        "Cuisine": "Mexican, Asian Fusion, Food Trucks",
        "Price Range": "$",
        "Rating": 3.6,
        "Review Count": 784
    },
    {
        "Name": "La Villa Cafe",
        "Address": "4105 Chevy Chase Dr, Los Angeles, CA 90039",
        "Latitude": 34.1335249,
        "Longitude": -118.26873,
        "Cuisine": "Mexican, Personal Chefs, Breakfast & Brunch",
        "Price Range": "$",
        "Rating": 4.4,
        "Review Count": 125
    },
    {
        "Name": "Zamora Brothers",
        "Address": "1559 W Pico Blvd, Los Angeles, CA 90015",
        "Latitude": 34.04473,
        "Longitude": -118.27638,
        "Cuisine": "Mexican, Meat Shops",
        "Price Range": "$",
        "Rating": 4.2,
        "Review Count": 145
    },
    {
        "Name": "Tacos Villa Corona",
        "Address": "3185 Glendale Blvd, Los Angeles, CA 90039",
        "Latitude": 34.117769,
        "Longitude": -118.261504,
        "Cuisine": "Mexican, Breakfast & Brunch",
        "Price Range": "$",
        "Rating": 3.9,
        "Review Count": 817
    },
    {
        "Name": "Taco Stand",
        "Address": "1018 North Madison Ave, Los Angeles, CA 90029",
        "Latitude": 34.09038,
        "Longitude": -118.28898,
        "Cuisine": "Mexican, Street Vendors, Tacos",
        "Price Range": "$",
        "Rating": 4.8,
        "Review Count": 41
    },
    {
        "Name": "Chipotle Mexican Grill",
        "Address": "301 N Larchmont Blvd, Los Angeles, CA 90004",
        "Latitude": 34.0764349499,
        "Longitude": -118.3239584074,
        "Cuisine": "Mexican, Fast Food",
        "Price Range": "$",
        "Rating": 2.5,
        "Review Count": 276
    },
    {
        "Name": "Taco Bell",
        "Address": "6254 Lexington Avenue, Los Angeles, CA 90038",
        "Latitude": 34.092359,
        "Longitude": -118.326298,
        "Cuisine": "Mexican, Fast Food",
        "Price Range": "$",
        "Rating": 2.1,
        "Review Count": 175
    },
    {
        "Name": "Planet Restaurant & Pizza",
        "Address": "1411 W 3rd St, Los Angeles, CA 90017",
        "Latitude": 34.0586342452,
        "Longitude": -118.2619194,
        "Cuisine": "Mexican, Pizza",
        "Price Range": "$",
        "Rating": 3.9,
        "Review Count": 24
    },
    {
        "Name": "Tamales Alberto",
        "Address": "1644 W Temple St, Los Angeles, CA 90026",
        "Latitude": 34.068347,
        "Longitude": -118.2625568,
        "Cuisine": "Mexican, Breakfast & Brunch",
        "Price Range": "$",
        "Rating": 4.2,
        "Review Count": 411
    },
    {
        "Name": "El Patroncito Mexican Cuisine",
        "Address": "421 Venice Blvd, Los Angeles, CA 90015",
        "Latitude": 34.036901,
        "Longitude": -118.268202,
        "Cuisine": "Mexican",
        "Price Range": "$",
        "Rating": 4.5,
        "Review Count": 283
    },
    {
        "Name": "Chiquis Tacos",
        "Address": "5080 Melrose Ave, Los Angeles, CA 90004",
        "Latitude": 34.08338,
        "Longitude": -118.31089,
        "Cuisine": "Mexican, Food Stands",
        "Price Range": "$",
        "Rating": 4.6,
        "Review Count": 22
    },
    {
        "Name": "Mariscos Jalisco",
        "Address": "E 10th St And Towne Ave, Los Angeles, CA 90021",
        "Latitude": 34.0340039972,
        "Longitude": -118.2492860061,
        "Cuisine": "Mexican, Food Trucks, Seafood",
        "Price Range": "$",
        "Rating": 4.6,
        "Review Count": 179
    },
    {
        "Name": "Armando's Hot Food",
        "Address": "1277 N Western Ave, Los Angeles, CA 90028",
        "Latitude": 34.09462,
        "Longitude": -118.30954,
        "Cuisine": "Mexican, Food Trucks",
        "Price Range": "$",
        "Rating": 4.3,
        "Review Count": 27
    },
    {
        "Name": "Burger Factory",
        "Address": "1358 W Martin Luther King Blvd, Los Angeles, CA 90037",
        "Latitude": 34.0106363941,
        "Longitude": -118.2999849692,
        "Cuisine": "Mexican, Burgers, Fast Food",
        "Price Range": "$",
        "Rating": 2.1,
        "Review Count": 91
    },
    {
        "Name": "Lupita's Tamales",
        "Address": "3027 N San Fernando Rd, Ste 104, Los Angeles, CA 90065",
        "Latitude": 34.11419,
        "Longitude": -118.24468,
        "Cuisine": "Mexican",
        "Price Range": "$",
        "Rating": 4.0,
        "Review Count": 281
    },
    {
        "Name": "King Taco",
        "Address": "2020 W Pico Blvd, Los Angeles, CA 90006",
        "Latitude": 34.04675,
        "Longitude": -118.28247,
        "Cuisine": "Mexican",
        "Price Range": "$",
        "Rating": 3.6,
        "Review Count": 1174
    },
    {
        "Name": "Dona Felix Restaurant",
        "Address": "5405 Venice Blvd, Los Angeles, CA 90019",
        "Latitude": 34.0443974,
        "Longitude": -118.3576614,
        "Cuisine": "Mexican",
        "Price Range": "$",
        "Rating": 3.8,
        "Review Count": 30
    },
    {
        "Name": "La Azteca",
        "Address": "4203 Chevy Chase Dr, Los Angeles, CA 90039",
        "Latitude": 34.1335549,
        "Longitude": -118.2659517,
        "Cuisine": "Mexican",
        "Price Range": "$",
        "Rating": 4.1,
        "Review Count": 88
    },
    {
        "Name": "Taco Bell",
        "Address": "990 N Western Ave, Los Angeles, CA 90029",
        "Latitude": 34.0883274178,
        "Longitude": -118.3088689037,
        "Cuisine": "Mexican, Fast Food",
        "Price Range": "$",
        "Rating": 2.1,
        "Review Count": 143
    },
    {
        "Name": "Chipotle Mexican Grill",
        "Address": "7660 W Sunset Blvd, Los Angeles, CA 90046",
        "Latitude": 34.0978471129,
        "Longitude": -118.3568997,
        "Cuisine": "Mexican, Fast Food",
        "Price Range": "$",
        "Rating": 2.5,
        "Review Count": 315
    },
    {
        "Name": "El Pollo Loco",
        "Address": "5319 Sunset Blvd, Los Angeles, CA 90027",
        "Latitude": 34.0983728375,
        "Longitude": -118.3067911561,
        "Cuisine": "Mexican, Fast Food, Chicken Shop",
        "Price Range": "$",
        "Rating": 2.2,
        "Review Count": 152
    },
    {
        "Name": "Rikis's Tacos",
        "Address": "700-708 N Edgemont St, Los Angeles, CA 90029",
        "Latitude": 34.0837421,
        "Longitude": -118.2958472,
        "Cuisine": "Mexican",
        "Price Range": "$",
        "Rating": 4.8,
        "Review Count": 8
    },
    {
        "Name": "La Noche Buena Restaurant",
        "Address": "12 Olvera St, Los Angeles, CA 90012",
        "Latitude": 34.0571051016,
        "Longitude": -118.23805545,
        "Cuisine": "Mexican",
        "Price Range": "$",
        "Rating": 4.3,
        "Review Count": 398
    },
    {
        "Name": "City Tacos",
        "Address": "835 W Jefferson Blvd, Ste 1735, Los Angeles, CA 90089",
        "Latitude": 34.024260362,
        "Longitude": -118.2846078,
        "Cuisine": "Mexican",
        "Price Range": "$",
        "Rating": 3.9,
        "Review Count": 84
    },
    {
        "Name": "Tacos Tamix",
        "Address": "4817 Pico Blvd, Los Angeles, CA 90019",
        "Latitude": 34.0484840337,
        "Longitude": -118.3413828777,
        "Cuisine": "Mexican, Food Trucks",
        "Price Range": "$",
        "Rating": 4.3,
        "Review Count": 106
    },
    {
        "Name": "El Charro Restaurant",
        "Address": "1621 W 6th St, Los Angeles, CA 90017",
        "Latitude": 34.0572875,
        "Longitude": -118.2694768,
        "Cuisine": "Mexican",
        "Price Range": "$",
        "Rating": 3.8,
        "Review Count": 144
    },
    {
        "Name": "Yuca's",
        "Address": "2056 Hillhurst Ave, Los Angeles, CA 90027",
        "Latitude": 34.10912,
        "Longitude": -118.28707,
        "Cuisine": "Mexican, Food Stands, Burgers",
        "Price Range": "$",
        "Rating": 3.9,
        "Review Count": 864
    },
    {
        "Name": "Baja California Tacos",
        "Address": "10831 Venice Blvd, Los Angeles, CA 90034",
        "Latitude": 34.0172359,
        "Longitude": -118.4100281,
        "Cuisine": "Mexican, Seafood, Tacos, Halal",
        "Price Range": "$",
        "Rating": 4.2,
        "Review Count": 637
    },
    {
        "Name": "El Corredor",
        "Address": "1917 S Vermont Ave, Los Angeles, CA 90007",
        "Latitude": 34.0395066568,
        "Longitude": -118.2917655,
        "Cuisine": "Mexican, Salvadoran",
        "Price Range": "$",
        "Rating": 4.3,
        "Review Count": 19
    },
    {
        "Name": "Restaurante Puerto La Union",
        "Address": "3811 W Pico Blvd, Los Angeles, CA 90019",
        "Latitude": 34.04773,
        "Longitude": -118.3228,
        "Cuisine": "Salvadoran, Tacos",
        "Price Range": "$",
        "Rating": 4.6,
        "Review Count": 38
    },
    {
        "Name": "Leo\u2019s Tacos Truck",
        "Address": "3485 S La Cienega Blvd, Los Angeles, CA 90016",
        "Latitude": 34.0246705,
        "Longitude": -118.3734038,
        "Cuisine": "Mexican, Tacos, Food Trucks",
        "Price Range": "$",
        "Rating": 4.2,
        "Review Count": 93
    },
    {
        "Name": "Villa Moreliana",
        "Address": "317 S Broadway, Grand Central Market, Los Angeles, CA 90013",
        "Latitude": 34.05088,
        "Longitude": -118.249003,
        "Cuisine": "Mexican",
        "Price Range": "$",
        "Rating": 4.3,
        "Review Count": 524
    },
    {
        "Name": "Avenue 26 Tacos",
        "Address": "353 S Alameda St, Los Angeles, CA 90013",
        "Latitude": 34.04378,
        "Longitude": -118.23852,
        "Cuisine": "Mexican, Tacos, Food Trucks",
        "Price Range": "$",
        "Rating": 4.4,
        "Review Count": 498
    },
    {
        "Name": "Benito's Taco Shop",
        "Address": "7912 Beverly Blvd, Los Angeles, CA 90048",
        "Latitude": 34.07581,
        "Longitude": -118.36228,
        "Cuisine": "Mexican",
        "Price Range": "$",
        "Rating": 3.4,
        "Review Count": 430
    },
    {
        "Name": "Levon's Quality Food",
        "Address": "4760 Sunset Blvd, Los Angeles, CA 90027",
        "Latitude": 34.0981332475,
        "Longitude": -118.293273747,
        "Cuisine": "Mexican, Food Trucks, Greek",
        "Price Range": "$",
        "Rating": 3.1,
        "Review Count": 19
    },
    {
        "Name": "Teddy\u2019s Red Tacos",
        "Address": "1130 Sunset Blvd, Los Angeles, CA 90012",
        "Latitude": 34.06615,
        "Longitude": -118.24975,
        "Cuisine": "Mexican, Food Trucks, Tacos",
        "Price Range": "$",
        "Rating": 4.0,
        "Review Count": 144
    },
    {
        "Name": "Leo's Tacos Truck",
        "Address": "415 Glendale Blvd, Los Angeles, CA 90026",
        "Latitude": 34.0677676787,
        "Longitude": -118.2609423284,
        "Cuisine": "Mexican, Food Trucks",
        "Price Range": "$",
        "Rating": 4.1,
        "Review Count": 473
    },
    {
        "Name": "Angel's Tijuana Tacos",
        "Address": "1185 Sunset Blvd, Los Angeles, CA 90026",
        "Latitude": 34.0679854054,
        "Longitude": -118.2500154734,
        "Cuisine": "Mexican, Tacos",
        "Price Range": "$",
        "Rating": 4.3,
        "Review Count": 250
    },
    {
        "Name": "La Flor De Yucatan",
        "Address": "1800 S Hoover St, Los Angeles, CA 90006",
        "Latitude": 34.0415458679,
        "Longitude": -118.2838516235,
        "Cuisine": "Mexican, Bakeries",
        "Price Range": "$",
        "Rating": 4.2,
        "Review Count": 150
    },
    {
        "Name": "Tacos El Venado",
        "Address": "605 S Vermont Ave, Los Angeles, CA 90005",
        "Latitude": 34.0633627496,
        "Longitude": -118.2918546976,
        "Cuisine": "Mexican, Tacos, Street Vendors",
        "Price Range": "$",
        "Rating": 4.5,
        "Review Count": 53
    },
    {
        "Name": "Tacos 1986",
        "Address": "609 S Spring St, Los Angeles, CA 90014",
        "Latitude": 34.0458186,
        "Longitude": -118.2514334,
        "Cuisine": "Mexican, Tacos",
        "Price Range": "$",
        "Rating": 3.7,
        "Review Count": 744
    },
    {
        "Name": "Que Ricos!",
        "Address": "712 N Vermont Ave, Los Angeles, CA 90029",
        "Latitude": 34.08392,
        "Longitude": -118.29149,
        "Cuisine": "Mexican",
        "Price Range": "$",
        "Rating": 3.3,
        "Review Count": 200
    },
    {
        "Name": "El Pollo Loco",
        "Address": "5001 Wilshire Blvd, Ste 101, Los Angeles, CA 90036",
        "Latitude": 34.0626567351,
        "Longitude": -118.3387923627,
        "Cuisine": "Mexican, Fast Food, Chicken Shop",
        "Price Range": "$",
        "Rating": 2.3,
        "Review Count": 88
    },
    {
        "Name": "Chipotle Mexican Grill",
        "Address": "110 S Fairfax Ave, Ste A-12, Los Angeles, CA 90036",
        "Latitude": 34.0737136847,
        "Longitude": -118.3609565489,
        "Cuisine": "Mexican, Fast Food",
        "Price Range": "$",
        "Rating": 3.1,
        "Review Count": 248
    },
    {
        "Name": "Lupita's Hot Dogs",
        "Address": "215 W 5th St, Los Angeles, CA 90013",
        "Latitude": 34.0480163,
        "Longitude": -118.2501836,
        "Cuisine": "Mexican, Food Trucks, Hot Dogs, Tacos",
        "Price Range": "$",
        "Rating": 4.9,
        "Review Count": 28
    },
    {
        "Name": "Tacos Locos",
        "Address": "2148 Venice Blvd, Los Angeles, CA 90006",
        "Latitude": 34.043485097,
        "Longitude": -118.3041665,
        "Cuisine": "Mexican",
        "Price Range": "$",
        "Rating": 4.1,
        "Review Count": 112
    },
    {
        "Name": "Taqueria El Charrito",
        "Address": "811 N Virgil Ave, Los Angeles, CA 90029",
        "Latitude": 34.0859823,
        "Longitude": -118.2870226,
        "Cuisine": "Mexican",
        "Price Range": "$",
        "Rating": 4.1,
        "Review Count": 74
    },
    {
        "Name": "El Flamin' Taco",
        "Address": "505 S Vermont Ave, Los Angeles, CA 90020",
        "Latitude": 34.0650352622,
        "Longitude": -118.2922615067,
        "Cuisine": "Mexican, Food Trucks",
        "Price Range": "$",
        "Rating": 4.0,
        "Review Count": 816
    },
    {
        "Name": "Yummy Donuts & Top Burger",
        "Address": "5656 Santa Monica Blvd, Los Angeles, CA 90038",
        "Latitude": 34.09044,
        "Longitude": -118.31327,
        "Cuisine": "Mexican, Donuts, Burgers, Tacos",
        "Price Range": "$",
        "Rating": 2.9,
        "Review Count": 43
    },
    {
        "Name": "La Se\u00f1ora de Los Tamales",
        "Address": "2321-2339 Venice Blvd, Los Angeles, CA 90019",
        "Latitude": 34.0435793554,
        "Longitude": -118.3098223223,
        "Cuisine": "Mexican, Street Vendors",
        "Price Range": "$",
        "Rating": 4.7,
        "Review Count": 12
    },
    {
        "Name": "Los Poblanos",
        "Address": "1433 W Jefferson Blvd, Los Angeles, CA 90007",
        "Latitude": 34.0256598,
        "Longitude": -118.29829,
        "Cuisine": "Mexican",
        "Price Range": "$",
        "Rating": 4.6,
        "Review Count": 5
    },
    {
        "Name": "Baja Hollywood",
        "Address": "6801 Hollywood Blvd, Ste 317, Los Angeles, CA 90028",
        "Latitude": 34.102251,
        "Longitude": -118.34017,
        "Cuisine": "Mexican",
        "Price Range": "$",
        "Rating": 2.7,
        "Review Count": 6
    },
    {
        "Name": "Mariela's Taco",
        "Address": "3662 W 3rd St, Los Angeles, CA 90020",
        "Latitude": 34.069114,
        "Longitude": -118.295933,
        "Cuisine": "Mexican",
        "Price Range": "$",
        "Rating": 3.5,
        "Review Count": 513
    },
    {
        "Name": "Mi Paisano",
        "Address": "5482 Santa Monica Blvd, Los Angeles, CA 90029",
        "Latitude": 34.0906351,
        "Longitude": -118.308896,
        "Cuisine": "Mexican",
        "Price Range": "$",
        "Rating": 4.0,
        "Review Count": 2
    },
    {
        "Name": "El Pajonal Restaurant",
        "Address": "1133 N Vermont Ave, Los Angeles, CA 90029",
        "Latitude": 34.09193,
        "Longitude": -118.29207,
        "Cuisine": "Mexican, Salvadoran",
        "Price Range": "$",
        "Rating": 2.7,
        "Review Count": 82
    },
    {
        "Name": "El Burrito Panzon",
        "Address": "2108 Beverly Blvd, Los Angeles, CA 90057",
        "Latitude": 34.0666063,
        "Longitude": -118.2709127728,
        "Cuisine": "Mexican",
        "Price Range": "$",
        "Rating": 4.1,
        "Review Count": 92
    },
    {
        "Name": "Rico's Tacos",
        "Address": "5871 W Pico Blvd, Los Angeles, CA 90019",
        "Latitude": 34.051864,
        "Longitude": -118.367057,
        "Cuisine": "Mexican, Street Vendors",
        "Price Range": "$",
        "Rating": 4.6,
        "Review Count": 130
    },
    {
        "Name": "Restaurante Guerrero",
        "Address": "1201 S Los Angeles St, Los Angeles, CA 90015",
        "Latitude": 34.0368330897,
        "Longitude": -118.2588074822,
        "Cuisine": "Mexican",
        "Price Range": "$",
        "Rating": 4.4,
        "Review Count": 20
    },
    {
        "Name": "Tacos El Unico",
        "Address": "1375 W Adams Blvd, Los Angeles, CA 90007",
        "Latitude": 34.0328849,
        "Longitude": -118.2911562,
        "Cuisine": "Mexican",
        "Price Range": "$",
        "Rating": 3.3,
        "Review Count": 208
    },
    {
        "Name": "Armando's Lunch Truck",
        "Address": "2771 McClintock Ave, Los Angeles, CA 90089",
        "Latitude": 34.026964,
        "Longitude": -118.285769,
        "Cuisine": "Mexican, Food Trucks",
        "Price Range": "$",
        "Rating": 4.4,
        "Review Count": 139
    },
    {
        "Name": "The Carbon Grill",
        "Address": "1801 S La Cienega Blvd, Los Angeles, CA 90035",
        "Latitude": 34.0438537598,
        "Longitude": -118.3785095215,
        "Cuisine": "Mexican, Asian Fusion",
        "Price Range": "$",
        "Rating": 4.1,
        "Review Count": 27
    },
    {
        "Name": "Chales Kitchen & Cantina",
        "Address": "2101 W Pico Blvd, Ste A5, Los Angeles, CA 90006",
        "Latitude": 34.0474236,
        "Longitude": -118.2829244,
        "Cuisine": "Mexican",
        "Price Range": "$",
        "Rating": 4.1,
        "Review Count": 69
    },
    {
        "Name": "Tacos Super Gallito",
        "Address": "1594 S La Brea Ave, Los Angeles, CA 90019",
        "Latitude": 34.0463239,
        "Longitude": -118.3450144,
        "Cuisine": "Mexican, Food Trucks, Tacos",
        "Price Range": "$",
        "Rating": 3.0,
        "Review Count": 167
    },
    {
        "Name": "Campos Tacos",
        "Address": "2639 S Robertson Blvd, Los Angeles, CA 90034",
        "Latitude": 34.03772,
        "Longitude": -118.38884,
        "Cuisine": "Mexican",
        "Price Range": "$",
        "Rating": 3.3,
        "Review Count": 250
    },
    {
        "Name": "Viva Taco Azteca Original",
        "Address": "3013 Los Feliz Blvd, Los Angeles, CA 91342",
        "Latitude": 34.1254094039,
        "Longitude": -118.2652048397,
        "Cuisine": "Mexican, Food Trucks",
        "Price Range": "$",
        "Rating": 4.6,
        "Review Count": 53
    },
    {
        "Name": "Torta Movil",
        "Address": "640 East 27th Street, Los Angeles, CA 90011",
        "Latitude": 34.021027,
        "Longitude": -118.262008,
        "Cuisine": "Mexican, Food Trucks",
        "Price Range": "$",
        "Rating": 4.8,
        "Review Count": 71
    },
    {
        "Name": "La Guadalupana",
        "Address": "1422 W 6th St, Los Angeles, CA 90017",
        "Latitude": 34.0563267,
        "Longitude": -118.2679035,
        "Cuisine": "Mexican",
        "Price Range": "$",
        "Rating": 4.1,
        "Review Count": 63
    },
    {
        "Name": "Just Turkey",
        "Address": "3340 S La Cienega Blvd, Los Angeles, CA 90016",
        "Latitude": 34.02692,
        "Longitude": -118.37158,
        "Cuisine": "American, Burgers, Tacos",
        "Price Range": "$",
        "Rating": 4.0,
        "Review Count": 233
    },
    {
        "Name": "Tacos El Compita",
        "Address": "1204 Hooper Ave, Los Angeles, CA 90021",
        "Latitude": 34.02741,
        "Longitude": -118.24225,
        "Cuisine": "Mexican, Food Trucks, Tacos",
        "Price Range": "$",
        "Rating": 4.5,
        "Review Count": 78
    },
    {
        "Name": "Shalom Pizza",
        "Address": "8715 W Pico Blvd, Los Angeles, CA 90035",
        "Latitude": 34.0547092176,
        "Longitude": -118.3819812162,
        "Cuisine": "Mexican, Pizza, Kosher",
        "Price Range": "$",
        "Rating": 4.4,
        "Review Count": 412
    },
    {
        "Name": "El Ultimo Tren",
        "Address": "241 N Figueroa St, Los Angeles, CA 90012",
        "Latitude": 34.059319,
        "Longitude": -118.250379,
        "Cuisine": "Mexican, Food Trucks, Sandwiches",
        "Price Range": "$",
        "Rating": 5.0,
        "Review Count": 26
    },
    {
        "Name": "Tacos Gavilan",
        "Address": "1900 S Central Ave, Los Angeles, CA 90011",
        "Latitude": 34.02393,
        "Longitude": -118.25037,
        "Cuisine": "Mexican",
        "Price Range": "$",
        "Rating": 3.8,
        "Review Count": 440
    },
    {
        "Name": "El Valle Oaxaqueno",
        "Address": "2318 W Jefferson Blvd, Los Angeles, CA 90018",
        "Latitude": 34.02528,
        "Longitude": -118.32077,
        "Cuisine": "Mexican, Grocery, Bakeries",
        "Price Range": "$",
        "Rating": 2.8,
        "Review Count": 17
    },
    {
        "Name": "Foodland",
        "Address": "739 S Union Ave, Los Angeles, CA 90017",
        "Latitude": 34.052803,
        "Longitude": -118.272301,
        "Cuisine": "Mexican",
        "Price Range": "$",
        "Rating": 3.6,
        "Review Count": 14
    },
    {
        "Name": "Las Ranas Cafe",
        "Address": "5237 W Adams Blvd, Los Angeles, CA 90016",
        "Latitude": 34.03272,
        "Longitude": -118.356504,
        "Cuisine": "Mexican",
        "Price Range": "$",
        "Rating": 4.0,
        "Review Count": 112
    },
    {
        "Name": "Tacos Tumbras a Tomas",
        "Address": "317 S Broadway, Spc A-5, Grand Central Market, Los Angeles, CA 90013",
        "Latitude": 34.050649,
        "Longitude": -118.248831,
        "Cuisine": "Mexican",
        "Price Range": "$",
        "Rating": 4.2,
        "Review Count": 1145
    },
    {
        "Name": "Carnitas Michoacan",
        "Address": "1605 S Hoover St, Ste 105, Los Angeles, CA 90006",
        "Latitude": 34.0432218137,
        "Longitude": -118.2851170656,
        "Cuisine": "Mexican",
        "Price Range": "$",
        "Rating": 3.7,
        "Review Count": 30
    },
    {
        "Name": "El Pollo Loco",
        "Address": "3959 Wilshire Blvd, Ste 1a, Los Angeles, CA 90010",
        "Latitude": 34.0620339351,
        "Longitude": -118.3135826485,
        "Cuisine": "Mexican, Fast Food, Chicken Shop",
        "Price Range": "$",
        "Rating": 2.3,
        "Review Count": 130
    },
    {
        "Name": "Maple Restaurant",
        "Address": "232 6th St, Los Angeles, CA 90013",
        "Latitude": 34.0440444946,
        "Longitude": -118.2481231689,
        "Cuisine": "Mexican",
        "Price Range": "$",
        "Rating": 4.6,
        "Review Count": 5
    },
    {
        "Name": "Leo's Tacos Truck",
        "Address": "2400 W Pico Blvd, Los Angeles, CA 90019",
        "Latitude": 34.046954,
        "Longitude": -118.289512,
        "Cuisine": "Mexican, Food Trucks",
        "Price Range": "$",
        "Rating": 4.1,
        "Review Count": 99
    },
    {
        "Name": "Golfo De Fonseca Restaurant",
        "Address": "808 N Vermont Ave, Los Angeles, CA 90029",
        "Latitude": 34.0861301,
        "Longitude": -118.2915951,
        "Cuisine": "Mexican, Salvadoran",
        "Price Range": "$",
        "Rating": 3.2,
        "Review Count": 111
    },
    {
        "Name": "La Tehuana",
        "Address": "4005 W 3rd St, Los Angeles, CA 90020",
        "Latitude": 34.069319,
        "Longitude": -118.300869,
        "Cuisine": "Mexican, Food Trucks",
        "Price Range": "$",
        "Rating": 4.2,
        "Review Count": 40
    },
    {
        "Name": "Masa Tortilleria",
        "Address": "804 Normandie Ave, Los Angeles, CA 90005",
        "Latitude": 34.057434,
        "Longitude": -118.2996651,
        "Cuisine": "Mexican",
        "Price Range": "$",
        "Rating": 4.0,
        "Review Count": 1
    },
    {
        "Name": "Marielas Taco",
        "Address": "2501 W Sunset Blvd, Ste F, Los Angeles, CA 90026",
        "Latitude": 34.0799644609,
        "Longitude": -118.2689001331,
        "Cuisine": "Mexican",
        "Price Range": "$",
        "Rating": 4.0,
        "Review Count": 199
    },
    {
        "Name": "Taco Sinaloa Truck",
        "Address": "S Ardmore Ave & W 8th St, Los Angeles, CA 90005",
        "Latitude": 34.0577,
        "Longitude": -118.30201,
        "Cuisine": "Mexican, Food Stands",
        "Price Range": "$",
        "Rating": 4.4,
        "Review Count": 28
    },
    {
        "Name": "Baja Fresh Mexican Grill",
        "Address": "8495 W 3rd St, Ste C, Los Angeles, CA 90048",
        "Latitude": 34.0734847,
        "Longitude": -118.3763016,
        "Cuisine": "Mexican, Tex-Mex, Fast Food",
        "Price Range": "$",
        "Rating": 2.4,
        "Review Count": 136
    },
    {
        "Name": "El Rancho Grande",
        "Address": "E 17 Olvera St, Los Angeles, CA 90012",
        "Latitude": 34.0577449397,
        "Longitude": -118.2379608974,
        "Cuisine": "Mexican",
        "Price Range": "$",
        "Rating": 4.2,
        "Review Count": 126
    },
    {
        "Name": "Del Taco",
        "Address": "4376 W Sunset Blvd, Los Angeles, CA 90029",
        "Latitude": 34.0963166893,
        "Longitude": -118.2850339851,
        "Cuisine": "Mexican, Fast Food",
        "Price Range": "$",
        "Rating": 2.0,
        "Review Count": 286
    },
    {
        "Name": "Tacos La Guera",
        "Address": "Pico Blvd & Hobart Blvd, Los Angeles, CA 90006",
        "Latitude": 34.047213,
        "Longitude": -118.305318,
        "Cuisine": "Mexican, Food Trucks",
        "Price Range": "$",
        "Rating": 4.4,
        "Review Count": 96
    },
    {
        "Name": "Taqueria Y Pupuseria El Savoy",
        "Address": "2439 James M Wood Blvd, Los Angeles, CA 90006",
        "Latitude": 34.0553183,
        "Longitude": -118.2827283,
        "Cuisine": "Mexican, Salvadoran, Burgers",
        "Price Range": "$",
        "Rating": 4.4,
        "Review Count": 25
    },
    {
        "Name": "King Taco",
        "Address": "645 E Washington Blvd, Los Angeles, CA 90015",
        "Latitude": 34.0280614288,
        "Longitude": -118.2574688153,
        "Cuisine": "Mexican",
        "Price Range": "$",
        "Rating": 3.2,
        "Review Count": 587
    },
    {
        "Name": "Mariscos Michoacan",
        "Address": "Vermont Ave & 5th St, Los Angeles, CA 90020",
        "Latitude": 34.0653498099,
        "Longitude": -118.2922459892,
        "Cuisine": "Mexican, Food Trucks",
        "Price Range": "$",
        "Rating": 4.1,
        "Review Count": 16
    },
    {
        "Name": "Taco-Ala-Carte",
        "Address": "6013 W Olympic Blvd, Los Angeles, CA 90036",
        "Latitude": 34.05809,
        "Longitude": -118.36234,
        "Cuisine": "Mexican, Food Stands, Kosher",
        "Price Range": "$",
        "Rating": 4.8,
        "Review Count": 5
    },
    {
        "Name": "El Grullense",
        "Address": "2274 W Pico Blvd, Los Angeles, CA 90006",
        "Latitude": 34.047,
        "Longitude": -118.28618,
        "Cuisine": "Mexican",
        "Price Range": "$",
        "Rating": 4.5,
        "Review Count": 114
    },
    {
        "Name": "Pescado Mojado Operations",
        "Address": "610 S Rampart Blvd, Ste 1, Los Angeles, CA 90057",
        "Latitude": 34.06189,
        "Longitude": -118.28132,
        "Cuisine": "Mexican",
        "Price Range": "$",
        "Rating": 5.0,
        "Review Count": 2
    },
    {
        "Name": "Taco Zone",
        "Address": "1342 N Alvarado St, Los Angeles, CA 90026",
        "Latitude": 34.0794734735,
        "Longitude": -118.2613425777,
        "Cuisine": "Mexican, Food Trucks",
        "Price Range": "$",
        "Rating": 4.3,
        "Review Count": 701
    },
    {
        "Name": "East Los Angeles Tacos",
        "Address": "953 Georgia St, Los Angeles, CA 90015",
        "Latitude": 34.0462494,
        "Longitude": -118.2669601,
        "Cuisine": "Mexican, Food Trucks",
        "Price Range": "$",
        "Rating": 4.3,
        "Review Count": 15
    },
    {
        "Name": "Mr Churro",
        "Address": "12 E Olvera St, Los Angeles, CA 90012",
        "Latitude": 34.0574680986,
        "Longitude": -118.2374401349,
        "Cuisine": "Mexican, Bakeries",
        "Price Range": "$",
        "Rating": 4.0,
        "Review Count": 558
    },
    {
        "Name": "Virgil & Clinton Taco Stand",
        "Address": "601 N Virgil Ave, Across From Osi Market, Los Angeles, CA 90004",
        "Latitude": 34.0817962179,
        "Longitude": -118.2871163573,
        "Cuisine": "Mexican, Street Vendors",
        "Price Range": "$",
        "Rating": 4.2,
        "Review Count": 34
    },
    {
        "Name": "Jack in the Box",
        "Address": "5201 Wilshire Blvd, Los Angeles, CA 90036",
        "Latitude": 34.0624569,
        "Longitude": -118.3431333303,
        "Cuisine": "American, Burgers, Fast Food, Tacos",
        "Price Range": "$",
        "Rating": 2.9,
        "Review Count": 72
    },
    {
        "Name": "El Asado",
        "Address": "1564 W Adams Blvd, Los Angeles, CA 90007",
        "Latitude": 34.0326235448,
        "Longitude": -118.2964035496,
        "Cuisine": "Mexican",
        "Price Range": "$",
        "Rating": 4.2,
        "Review Count": 5
    },
    {
        "Name": "Rubio's Cafe",
        "Address": "3380 S Robertson Blvd, Los Angeles, CA 90034",
        "Latitude": 34.02907,
        "Longitude": -118.39086,
        "Cuisine": "Mexican, Salvadoran, American",
        "Price Range": "$",
        "Rating": 4.5,
        "Review Count": 178
    },
    {
        "Name": "Don Lino's Mexican Food",
        "Address": "3525 W 3rd St, Ste 4, Los Angeles, CA 90020",
        "Latitude": 34.0693,
        "Longitude": -118.29253,
        "Cuisine": "Mexican",
        "Price Range": "$",
        "Rating": 3.6,
        "Review Count": 69
    },
    {
        "Name": "Las Delicias",
        "Address": "4029 S Western Ave, Los Angeles, CA 90062",
        "Latitude": 34.0102421,
        "Longitude": -118.3090649,
        "Cuisine": "Mexican",
        "Price Range": "$",
        "Rating": 4.0,
        "Review Count": 64
    },
    {
        "Name": "Chipotle Mexican Grill",
        "Address": "5550 Wilshire Blvd, Ste 101B, Los Angeles, CA 90036",
        "Latitude": 34.0616573291,
        "Longitude": -118.3499410441,
        "Cuisine": "Mexican, Fast Food",
        "Price Range": "$",
        "Rating": 2.3,
        "Review Count": 274
    },
    {
        "Name": "Alonso\u2019s Taqueria",
        "Address": "287 S Bixel St, Los Angeles, CA 90026",
        "Latitude": 34.057903259,
        "Longitude": -118.2598271761,
        "Cuisine": "Mexican, Food Stands, Tacos, Caterers",
        "Price Range": "$",
        "Rating": 5.0,
        "Review Count": 3
    },
    {
        "Name": "Leo's Tacos Truck",
        "Address": "1533 Vermont Ave, Los Angeles, CA 90006",
        "Latitude": 34.0443335,
        "Longitude": -118.2918743,
        "Cuisine": "Mexican, Food Trucks",
        "Price Range": "$",
        "Rating": 4.1,
        "Review Count": 69
    },
    {
        "Name": "Chipotle Mexican Grill",
        "Address": "3183 Wilshire Blvd, Ste 195, Los Angeles, CA 90010",
        "Latitude": 34.0621866753,
        "Longitude": -118.2913845883,
        "Cuisine": "Mexican, Fast Food",
        "Price Range": "$",
        "Rating": 2.1,
        "Review Count": 334
    },
    {
        "Name": "Taco Bell",
        "Address": "3029 W 8th St, Los Angeles, CA 90005",
        "Latitude": 34.057965,
        "Longitude": -118.291934,
        "Cuisine": "Mexican, Fast Food",
        "Price Range": "$",
        "Rating": 2.5,
        "Review Count": 110
    },
    {
        "Name": "Juanita's Tacos",
        "Address": "Corner of S Western & W 3rd St, Los Angeles, CA 90189",
        "Latitude": 34.068871,
        "Longitude": -118.308156,
        "Cuisine": "Mexican",
        "Price Range": "$",
        "Rating": 4.1,
        "Review Count": 135
    },
    {
        "Name": "Tacos El Jefe",
        "Address": "2377 W Pico Blvd, Los Angeles, CA 90006",
        "Latitude": 34.0476343856,
        "Longitude": -118.2888187419,
        "Cuisine": "Mexican, Fast Food, Food Trucks",
        "Price Range": "$",
        "Rating": 4.5,
        "Review Count": 75
    },
    {
        "Name": "Taqueria Jalisco",
        "Address": "4755 W Washington Blvd, Los Angeles, CA 90016",
        "Latitude": 34.0399549,
        "Longitude": -118.3432121,
        "Cuisine": "Mexican",
        "Price Range": "$",
        "Rating": 3.9,
        "Review Count": 71
    },
    {
        "Name": "Taco Bell",
        "Address": "1604 S. La Brea Ave., Los Angeles, CA 90019",
        "Latitude": 34.045778,
        "Longitude": -118.345424,
        "Cuisine": "Mexican, Fast Food",
        "Price Range": "$",
        "Rating": 2.6,
        "Review Count": 116
    },
    {
        "Name": "Taco Bell",
        "Address": "103 S Rampart Blvd, Los Angeles, CA 90057",
        "Latitude": 34.069516,
        "Longitude": -118.277028,
        "Cuisine": "Mexican, Fast Food",
        "Price Range": "$",
        "Rating": 2.4,
        "Review Count": 215
    },
    {
        "Name": "Burrito King Sunset",
        "Address": "2109 W Sunset Blvd, Los Angeles, CA 90026",
        "Latitude": 34.0777241,
        "Longitude": -118.2637577,
        "Cuisine": "Mexican",
        "Price Range": "$",
        "Rating": 3.2,
        "Review Count": 312
    },
    {
        "Name": "El Jalape\u00f1o Charbroiled Chicken",
        "Address": "854 S Vermont Ave, Los Angeles, CA 90005",
        "Latitude": 34.05666,
        "Longitude": -118.291471,
        "Cuisine": "Mexican, Chicken Shop, Breakfast & Brunch",
        "Price Range": "$",
        "Rating": 3.9,
        "Review Count": 167
    },
    {
        "Name": "Lupita's Meat Market",
        "Address": "1883 W Adams Blvd, Los Angeles, CA 90018",
        "Latitude": 34.0328449,
        "Longitude": -118.3055816,
        "Cuisine": "Mexican, Meat Shops, Grocery",
        "Price Range": "$",
        "Rating": 4.1,
        "Review Count": 37
    },
    {
        "Name": "Do\u00f1a Inez",
        "Address": "847 Santee St, Los Angeles, CA 90014",
        "Latitude": 34.0408258,
        "Longitude": -118.2525627,
        "Cuisine": "Mexican",
        "Price Range": "$",
        "Rating": 4.5,
        "Review Count": 136
    },
    {
        "Name": "Jack in the Box",
        "Address": "459 S Vermont Ave, Los Angeles, CA 90020",
        "Latitude": 34.0655876174,
        "Longitude": -118.2919447124,
        "Cuisine": "American, Fast Food, Burgers, Tacos",
        "Price Range": "$",
        "Rating": 2.2,
        "Review Count": 131
    },
    {
        "Name": "Casa La Do\u00f1a",
        "Address": "800 S Main St, Los Angeles, CA 90014",
        "Latitude": 34.0427123,
        "Longitude": -118.2531436,
        "Cuisine": "Mexican",
        "Price Range": "$",
        "Rating": 4.3,
        "Review Count": 750
    },
    {
        "Name": "Alameda Tacos",
        "Address": "1800-1898 E Martin Luther King Jr Blvd, Los Angeles, CA 90058",
        "Latitude": 34.0097484296,
        "Longitude": -118.2397717237,
        "Cuisine": "Mexican, Street Vendors",
        "Price Range": "$",
        "Rating": 4.8,
        "Review Count": 26
    },
    {
        "Name": "Lucy's #1",
        "Address": "1330 W Washington Blvd, Los Angeles, CA 90007",
        "Latitude": 34.0397224426,
        "Longitude": -118.2849349976,
        "Cuisine": "Mexican",
        "Price Range": "$",
        "Rating": 3.4,
        "Review Count": 42
    },
    {
        "Name": "El Pollo Loco",
        "Address": "912 N Vermont Ave, Los Angeles, CA 90027",
        "Latitude": 34.088133,
        "Longitude": -118.291565,
        "Cuisine": "Mexican, Chicken Shop, Fast Food",
        "Price Range": "$",
        "Rating": 2.2,
        "Review Count": 62
    },
    {
        "Name": "El Parian Restaurant",
        "Address": "1528 W Pico Blvd, Los Angeles, CA 90015",
        "Latitude": 34.0438951522,
        "Longitude": -118.2758172,
        "Cuisine": "Mexican",
        "Price Range": "$",
        "Rating": 4.0,
        "Review Count": 249
    },
    {
        "Name": "Last Call Tacos",
        "Address": "2939 1/2 W Sunset Blvd, Los Angeles, CA 90026",
        "Latitude": 34.0836823426,
        "Longitude": -118.2737444347,
        "Cuisine": "Mexican, Street Vendors",
        "Price Range": "$",
        "Rating": 4.8,
        "Review Count": 19
    },
    {
        "Name": "Tacos Listo",
        "Address": "2929 S Vermont Ave, Los Angeles, CA 90007",
        "Latitude": 34.0279886071,
        "Longitude": -118.291923,
        "Cuisine": "Mexican, Street Vendors",
        "Price Range": "$",
        "Rating": 4.6,
        "Review Count": 74
    },
    {
        "Name": "ABC Express",
        "Address": "1822 W 7th St, Los Angeles, CA 90057",
        "Latitude": 34.0552165,
        "Longitude": -118.2744046,
        "Cuisine": "Chinese, Noodles, Mexican",
        "Price Range": "$",
        "Rating": 3.9,
        "Review Count": 16
    },
    {
        "Name": "Alex Food's: Cemitas Poblanas",
        "Address": "11060 W Pico Blvd, Los Angeles, CA 90064",
        "Latitude": 34.036758,
        "Longitude": -118.434098,
        "Cuisine": "Mexican, Caterers, Food Trucks",
        "Price Range": "$",
        "Rating": 4.3,
        "Review Count": 56
    },
    {
        "Name": "Los Alcatraces Restaurant",
        "Address": "3773 S Western Ave, Los Angeles, CA 90018",
        "Latitude": 34.0181223303,
        "Longitude": -118.3089720458,
        "Cuisine": "Mexican",
        "Price Range": "$",
        "Rating": 3.9,
        "Review Count": 37
    },
    {
        "Name": "Crazy Tacos",
        "Address": "564 S Main St, Los Angeles, CA 90013",
        "Latitude": 34.0455651,
        "Longitude": -118.2494017,
        "Cuisine": "Mexican, Food Trucks",
        "Price Range": "$",
        "Rating": 3.2,
        "Review Count": 52
    },
    {
        "Name": "Jacky\u2019s Restaurant",
        "Address": "310 W 5th St, Los Angeles, CA 90013",
        "Latitude": 34.0482552416,
        "Longitude": -118.2510744812,
        "Cuisine": "Mexican",
        "Price Range": "$",
        "Rating": 4.6,
        "Review Count": 35
    },
    {
        "Name": "Tacos Los Reyes",
        "Address": "3300 W Olympic Blvd, Los Angeles, CA 90019",
        "Latitude": 34.052661,
        "Longitude": -118.309038,
        "Cuisine": "Mexican, Food Trucks, Tacos",
        "Price Range": "$",
        "Rating": 4.2,
        "Review Count": 46
    },
    {
        "Name": "Tacos Andino",
        "Address": "3458 S Sepulveda Blvd, Los Angeles, CA 90034",
        "Latitude": 34.0199356186,
        "Longitude": -118.4226670114,
        "Cuisine": "Mexican, Tacos, Street Vendors",
        "Price Range": "$",
        "Rating": 4.6,
        "Review Count": 43
    },
    {
        "Name": "Cafe Aly",
        "Address": "310 E Pico Blvd, Los Angeles, CA 90015",
        "Latitude": 34.0348057,
        "Longitude": -118.2579847,
        "Cuisine": "Mexican, Persian/Iranian, Halal",
        "Price Range": "$",
        "Rating": 4.6,
        "Review Count": 39
    },
    {
        "Name": "Quesadillas Meli",
        "Address": "2700 Future St, Los Angeles, CA 90065",
        "Latitude": 34.0984599548,
        "Longitude": -118.2339851456,
        "Cuisine": "Mexican, Food Trucks",
        "Price Range": "$",
        "Rating": 4.8,
        "Review Count": 18
    },
    {
        "Name": "Kosher Pizza Station",
        "Address": "8965 W Pico Blvd, Los Angeles, CA 90035",
        "Latitude": 34.0553849,
        "Longitude": -118.3875885,
        "Cuisine": "Mexican, Pizza, Kosher",
        "Price Range": "$",
        "Rating": 4.5,
        "Review Count": 94
    },
    {
        "Name": "Chipotle Mexican Grill",
        "Address": "4550 W Pico Blvd, Ste C1301, Los Angeles, CA 90019",
        "Latitude": 34.0478878816,
        "Longitude": -118.3356012318,
        "Cuisine": "Mexican, Fast Food",
        "Price Range": "$",
        "Rating": 2.0,
        "Review Count": 282
    },
    {
        "Name": "Jack in the Box",
        "Address": "830 N Vermont Ave, Los Angeles, CA 90029",
        "Latitude": 34.0863645929,
        "Longitude": -118.2914243639,
        "Cuisine": "American, Burgers, Fast Food, Tacos",
        "Price Range": "$",
        "Rating": 1.7,
        "Review Count": 110
    },